{
"type": "FeatureCollection",
"name": "portos",
"crs": { "type": "name", "properties": { "name": "urn:ogc:def:crs:EPSG::4674" } },
"features": [
{ "type": "Feature", "properties": { "tipo": "PORTO", "nome": "Angra dos Reis  ", "categoria": "Porto Organizado", "uf": "RJ" }, "geometry": { "type": "Point", "coordinates": [ -44.316389, -23.011943 ] } },
{ "type": "Feature", "properties": { "tipo": "PORTO", "nome": "Antonina", "categoria": "Porto Organizado", "uf": "PR" }, "geometry": { "type": "Point", "coordinates": [ -48.693333, -25.444167 ] } },
{ "type": "Feature", "properties": { "tipo": "PORTO", "nome": "Aratu  ", "categoria": "Porto Organizado", "uf": "BA" }, "geometry": { "type": "Point", "coordinates": [ -38.496943, -12.78111 ] } },
{ "type": "Feature", "properties": { "tipo": "PORTO", "nome": "Areia Branca  ", "categoria": "Porto Organizado", "uf": "RN" }, "geometry": { "type": "Point", "coordinates": [ -37.044722, -4.817777 ] } },
{ "type": "Feature", "properties": { "tipo": "PORTO", "nome": "Belém  ", "categoria": "Porto Organizado", "uf": "PA" }, "geometry": { "type": "Point", "coordinates": [ -48.497777, -1.445278 ] } },
{ "type": "Feature", "properties": { "tipo": "PORTO", "nome": "Cabedelo  ", "categoria": "Porto Organizado", "uf": "PB" }, "geometry": { "type": "Point", "coordinates": [ -34.838611, -6.973055 ] } },
{ "type": "Feature", "properties": { "tipo": "PORTO", "nome": "Estrela", "categoria": "Porto Organizado", "uf": "RS" }, "geometry": { "type": "Point", "coordinates": [ -51.959443, -29.47361 ] } },
{ "type": "Feature", "properties": { "tipo": "PORTO", "nome": "Forno ", "categoria": "Porto Organizado", "uf": "RJ" }, "geometry": { "type": "Point", "coordinates": [ -42.015555, -22.970278 ] } },
{ "type": "Feature", "properties": { "tipo": "PORTO", "nome": "Fortaleza  ", "categoria": "Porto Organizado", "uf": "CE" }, "geometry": { "type": "Point", "coordinates": [ -38.47361, -3.709722 ] } },
{ "type": "Feature", "properties": { "tipo": "PORTO", "nome": "Ilhéus  ", "categoria": "Porto Organizado", "uf": "BA" }, "geometry": { "type": "Point", "coordinates": [ -39.026389, -14.778332 ] } },
{ "type": "Feature", "properties": { "tipo": "PORTO", "nome": "Imbituba  ", "categoria": "Porto Organizado", "uf": "SC" }, "geometry": { "type": "Point", "coordinates": [ -48.654167, -28.231389 ] } },
{ "type": "Feature", "properties": { "tipo": "PORTO", "nome": "Itajaí ", "categoria": "Porto Organizado", "uf": "SC" }, "geometry": { "type": "Point", "coordinates": [ -48.666389, -26.900832 ] } },
{ "type": "Feature", "properties": { "tipo": "PORTO", "nome": "Laguna", "categoria": "Porto Organizado", "uf": "SC" }, "geometry": { "type": "Point", "coordinates": [ -48.769722, -28.496666 ] } },
{ "type": "Feature", "properties": { "tipo": "PORTO", "nome": "Macapá", "categoria": "Porto Organizado", "uf": "AP" }, "geometry": { "type": "Point", "coordinates": [ -51.166666, -0.055555 ] } },
{ "type": "Feature", "properties": { "tipo": "PORTO", "nome": "Maceió", "categoria": "Porto Organizado", "uf": "AL" }, "geometry": { "type": "Point", "coordinates": [ -35.726388, -9.683056 ] } },
{ "type": "Feature", "properties": { "tipo": "PORTO", "nome": "Manaus", "categoria": "Porto Organizado", "uf": "AM" }, "geometry": { "type": "Point", "coordinates": [ -60.026111, -3.1375 ] } },
{ "type": "Feature", "properties": { "tipo": "PORTO", "nome": "Natal", "categoria": "Porto Organizado", "uf": "RN" }, "geometry": { "type": "Point", "coordinates": [ -35.204999, -5.772777 ] } },
{ "type": "Feature", "properties": { "tipo": "PORTO", "nome": "Niterói  ", "categoria": "Porto Organizado", "uf": "RJ" }, "geometry": { "type": "Point", "coordinates": [ -43.11611, -22.882221 ] } },
{ "type": "Feature", "properties": { "tipo": "PORTO", "nome": "Paranaguá", "categoria": "Porto Organizado", "uf": "PR" }, "geometry": { "type": "Point", "coordinates": [ -48.505555, -25.502221 ] } },
{ "type": "Feature", "properties": { "tipo": "PORTO", "nome": "Pelotas  ", "categoria": "Porto Organizado", "uf": "RS" }, "geometry": { "type": "Point", "coordinates": [ -52.333888, -31.781943 ] } },
{ "type": "Feature", "properties": { "tipo": "PORTO", "nome": "Porto Alegre  ", "categoria": "Porto Organizado", "uf": "RS" }, "geometry": { "type": "Point", "coordinates": [ -51.211111, -30.007221 ] } },
{ "type": "Feature", "properties": { "tipo": "PORTO", "nome": "Porto Velho  ", "categoria": "Porto Organizado", "uf": "RO" }, "geometry": { "type": "Point", "coordinates": [ -63.915278, -8.748889 ] } },
{ "type": "Feature", "properties": { "tipo": "PORTO", "nome": "Recife  ", "categoria": "Porto Organizado", "uf": "PE" }, "geometry": { "type": "Point", "coordinates": [ -34.868332, -8.053888 ] } },
{ "type": "Feature", "properties": { "tipo": "PORTO", "nome": "Rio de Janeiro ", "categoria": "Porto Organizado", "uf": "RJ" }, "geometry": { "type": "Point", "coordinates": [ -43.195278, -22.892222 ] } },
{ "type": "Feature", "properties": { "tipo": "PORTO", "nome": "Rio Grande  ", "categoria": "Porto Organizado", "uf": "RS" }, "geometry": { "type": "Point", "coordinates": [ -52.075555, -32.042499 ] } },
{ "type": "Feature", "properties": { "tipo": "PORTO", "nome": "Salvador ", "categoria": "Porto Organizado", "uf": "BA" }, "geometry": { "type": "Point", "coordinates": [ -38.509444, -12.965277 ] } },
{ "type": "Feature", "properties": { "tipo": "PORTO", "nome": "Santarém  ", "categoria": "Porto Organizado", "uf": "PA" }, "geometry": { "type": "Point", "coordinates": [ -54.737499, -2.415 ] } },
{ "type": "Feature", "properties": { "tipo": "PORTO", "nome": "Santos  ", "categoria": "Porto Organizado", "uf": "SP" }, "geometry": { "type": "Point", "coordinates": [ -46.291944, -23.961666 ] } },
{ "type": "Feature", "properties": { "tipo": "PORTO", "nome": "São Sebastião ", "categoria": "Porto Organizado", "uf": "SP" }, "geometry": { "type": "Point", "coordinates": [ -45.3975, -23.811111 ] } },
{ "type": "Feature", "properties": { "tipo": "PORTO", "nome": "São Francisco do Sul  ", "categoria": "Porto Organizado", "uf": "SC" }, "geometry": { "type": "Point", "coordinates": [ -48.634721, -26.238889 ] } },
{ "type": "Feature", "properties": { "tipo": "PORTO", "nome": "Suape  ", "categoria": "Porto Organizado", "uf": "PE" }, "geometry": { "type": "Point", "coordinates": [ -34.968611, -8.391944 ] } },
{ "type": "Feature", "properties": { "tipo": "PORTO", "nome": "TNA ITAUTINGA", "categoria": "TNA", "uf": "AM" }, "geometry": { "type": "Point", "coordinates": [ -59.938872, -3.13375 ] } },
{ "type": "Feature", "properties": { "tipo": "PORTO", "nome": "Vila do Conde ", "categoria": "Porto Organizado", "uf": "PA" }, "geometry": { "type": "Point", "coordinates": [ -48.747777, -1.544167 ] } },
{ "type": "Feature", "properties": { "tipo": "PORTO", "nome": "Vitória  ", "categoria": "Porto Organizado", "uf": "ES" }, "geometry": { "type": "Point", "coordinates": [ -40.339444, -20.3225 ] } },
{ "type": "Feature", "properties": { "tipo": "PORTO", "nome": "Salinas", "categoria": "Porto Público", "uf": "RN" }, "geometry": { "type": "Point", "coordinates": [ -37.1375, -4.946666 ] } },
{ "type": "Feature", "properties": { "tipo": "PORTO", "nome": "Barra do Riacho", "categoria": "Porto Organizado", "uf": "ES" }, "geometry": { "type": "Point", "coordinates": [ -40.058399, -19.838499 ] } },
{ "type": "Feature", "properties": { "tipo": "PORTO", "nome": "Terminal Trombetas", "categoria": "Terminal de uso privado", "uf": "PA" }, "geometry": { "type": "Point", "coordinates": [ -56.380277, -1.460277 ] } },
{ "type": "Feature", "properties": { "tipo": "PORTO", "nome": "Terminal de Tubarão", "categoria": "Terminal de uso privado", "uf": "ES" }, "geometry": { "type": "Point", "coordinates": [ -40.248888, -20.288056 ] } },
{ "type": "Feature", "properties": { "tipo": "PORTO", "nome": "Terminal da Ilha Guaíba - TIG", "categoria": "Terminal de uso privado", "uf": "RJ" }, "geometry": { "type": "Point", "coordinates": [ -44.033332, -23.013332 ] } },
{ "type": "Feature", "properties": { "tipo": "PORTO", "nome": "Terminal Fluvial Caulim", "categoria": "Terminal de uso privado", "uf": "PA" }, "geometry": { "type": "Point", "coordinates": [ -52.541353, -0.858307 ] } },
{ "type": "Feature", "properties": { "tipo": "PORTO", "nome": "Porto Jari - Terminal Munguba", "categoria": "Terminal de uso privado", "uf": "AP" }, "geometry": { "type": "Point", "coordinates": [ -52.42367, -0.917928 ] } },
{ "type": "Feature", "properties": { "tipo": "PORTO", "nome": "Itaituba Indústria de Cimentos", "categoria": "Terminal de uso privado", "uf": "RO" }, "geometry": { "type": "Point", "coordinates": [ -63.919166, -8.703611 ] } },
{ "type": "Feature", "properties": { "tipo": "PORTO", "nome": "Terminal Integrador Portuário Luiz Antonio Mesquita - TIPLAM", "categoria": "Terminal de uso privado", "uf": "SP" }, "geometry": { "type": "Point", "coordinates": [ -46.371667, -23.872499 ] } },
{ "type": "Feature", "properties": { "tipo": "PORTO", "nome": "Terminal Marítimo Inácio Barbosa - TMIB", "categoria": "Terminal de uso privado", "uf": "SE" }, "geometry": { "type": "Point", "coordinates": [ -36.919167, -10.843889 ] } },
{ "type": "Feature", "properties": { "tipo": "PORTO", "nome": "Yara Brasil Fertilizantes", "categoria": "Terminal de uso privado", "uf": "RS" }, "geometry": { "type": "Point", "coordinates": [ -52.094999, -32.079721 ] } },
{ "type": "Feature", "properties": { "tipo": "PORTO", "nome": "Granel Química Ladário", "categoria": "Terminal de uso privado", "uf": "MS" }, "geometry": { "type": "Point", "coordinates": [ -57.586111, -19.004722 ] } },
{ "type": "Feature", "properties": { "tipo": "PORTO", "nome": "Terminal Ponta da Montanha", "categoria": "Terminal de uso privado", "uf": "PA" }, "geometry": { "type": "Point", "coordinates": [ -48.781666, -1.569444 ] } },
{ "type": "Feature", "properties": { "tipo": "PORTO", "nome": "Porto Gregório Curvo", "categoria": "Terminal de uso privado", "uf": "MS" }, "geometry": { "type": "Point", "coordinates": [ -57.457777, -19.610555 ] } },
{ "type": "Feature", "properties": { "tipo": "PORTO", "nome": "Terminal Portuário Braskarne", "categoria": "Terminal de uso privado", "uf": "SC" }, "geometry": { "type": "Point", "coordinates": [ -48.670278, -26.897221 ] } },
{ "type": "Feature", "properties": { "tipo": "PORTO", "nome": "Terminal Santa Clara", "categoria": "Terminal de uso privado", "uf": "RS" }, "geometry": { "type": "Point", "coordinates": [ -51.374443, -29.901389 ] } },
{ "type": "Feature", "properties": { "tipo": "PORTO", "nome": "Moinho Taquariense", "categoria": "Terminal de uso privado", "uf": "RS" }, "geometry": { "type": "Point", "coordinates": [ -51.8725, -29.8075 ] } },
{ "type": "Feature", "properties": { "tipo": "PORTO", "nome": "Terminal de Praia Mole", "categoria": "Terminal de uso privado", "uf": "ES" }, "geometry": { "type": "Point", "coordinates": [ -40.233333, -20.296389 ] } },
{ "type": "Feature", "properties": { "tipo": "PORTO", "nome": "Terminal Marítimo Alfandegado Privativo de Uso Misto de Praia Mole", "categoria": "Terminal de uso privado", "uf": "ES" }, "geometry": { "type": "Point", "coordinates": [ -40.234721, -20.293889 ] } },
{ "type": "Feature", "properties": { "tipo": "PORTO", "nome": "Terminal Marítimo Privativo de Cubatão - TMPC", "categoria": "Terminal de uso privado", "uf": "SP" }, "geometry": { "type": "Point", "coordinates": [ -46.376389, -23.870833 ] } },
{ "type": "Feature", "properties": { "tipo": "PORTO", "nome": "Companhia Portuária Vila Velha - CPVV", "categoria": "Terminal de uso privado", "uf": "ES" }, "geometry": { "type": "Point", "coordinates": [ -40.321389, -20.323889 ] } },
{ "type": "Feature", "properties": { "tipo": "PORTO", "nome": "Terminal Marítimo Luiz Fogliatto - Termasa", "categoria": "Terminal de uso privado", "uf": "RS" }, "geometry": { "type": "Point", "coordinates": [ -52.103056, -32.115 ] } },
{ "type": "Feature", "properties": { "tipo": "PORTO", "nome": "Sucocítrico Cutrale", "categoria": "Terminal de uso privado", "uf": "SP" }, "geometry": { "type": "Point", "coordinates": [ -46.286388, -23.979721 ] } },
{ "type": "Feature", "properties": { "tipo": "PORTO", "nome": "Terminal Portuário Porto Pontal - TPPP", "categoria": "Terminal de uso privado", "uf": "PR" }, "geometry": { "type": "Point", "coordinates": [ -48.375, -25.545277 ] } },
{ "type": "Feature", "properties": { "tipo": "PORTO", "nome": "Passarão", "categoria": "Terminal de uso privado", "uf": "RO" }, "geometry": { "type": "Point", "coordinates": [ -63.92, -8.715833 ] } },
{ "type": "Feature", "properties": { "tipo": "PORTO", "nome": "Cattalini Terminais Marítimos", "categoria": "Terminal de uso privado", "uf": "PR" }, "geometry": { "type": "Point", "coordinates": [ -48.5375, -25.500833 ] } },
{ "type": "Feature", "properties": { "tipo": "PORTO", "nome": "Cosan Lubrificantes e Especialidades", "categoria": "Terminal de uso privado", "uf": "RJ" }, "geometry": { "type": "Point", "coordinates": [ -43.1625, -22.822777 ] } },
{ "type": "Feature", "properties": { "tipo": "PORTO", "nome": "Bianchini Canoas", "categoria": "Terminal de uso privado", "uf": "RS" }, "geometry": { "type": "Point", "coordinates": [ -51.239722, -29.916111 ] } },
{ "type": "Feature", "properties": { "tipo": "PORTO", "nome": "Porto Engenheiro Zephyrino Lavanère Machado Filho", "categoria": "Terminal de uso privado", "uf": "RJ" }, "geometry": { "type": "Point", "coordinates": [ -41.768332, -22.385833 ] } },
{ "type": "Feature", "properties": { "tipo": "PORTO", "nome": "Porto Sobramil", "categoria": "Terminal de uso privado", "uf": "MS" }, "geometry": { "type": "Point", "coordinates": [ -57.619166, -18.999444 ] } },
{ "type": "Feature", "properties": { "tipo": "PORTO", "nome": "Terminal Fluvial de Juazeiro", "categoria": "Terminal de uso privado", "uf": "BA" }, "geometry": { "type": "Point", "coordinates": [ -40.541944, -9.443333 ] } },
{ "type": "Feature", "properties": { "tipo": "PORTO", "nome": "Brasco Rio", "categoria": "Terminal de uso privado", "uf": "RJ" }, "geometry": { "type": "Point", "coordinates": [ -43.207222, -22.87 ] } },
{ "type": "Feature", "properties": { "tipo": "PORTO", "nome": "Unidade Offshore Techint - UOT", "categoria": "Terminal de uso privado", "uf": "PR" }, "geometry": { "type": "Point", "coordinates": [ -48.364722, -25.553055 ] } },
{ "type": "Feature", "properties": { "tipo": "PORTO", "nome": "Terminal Braskem", "categoria": "Terminal de uso privado", "uf": "AL" }, "geometry": { "type": "Point", "coordinates": [ -35.759166, -9.693889 ] } },
{ "type": "Feature", "properties": { "tipo": "PORTO", "nome": "Terminal Privado Copelmi", "categoria": "Terminal de uso privado", "uf": "RS" }, "geometry": { "type": "Point", "coordinates": [ -51.623888, -29.94861 ] } },
{ "type": "Feature", "properties": { "tipo": "PORTO", "nome": "J. F. de Oliveira - Manaus", "categoria": "Terminal de uso privado", "uf": "AM" }, "geometry": { "type": "Point", "coordinates": [ -59.938333, -3.135555 ] } },
{ "type": "Feature", "properties": { "tipo": "PORTO", "nome": "Cimento Vencemos", "categoria": "Terminal de uso privado", "uf": "AM" }, "geometry": { "type": "Point", "coordinates": [ -59.923611, -3.122777 ] } },
{ "type": "Feature", "properties": { "tipo": "PORTO", "nome": "Terminal Marítimo Dow Aratu - Bahia", "categoria": "Terminal de uso privado", "uf": "BA" }, "geometry": { "type": "Point", "coordinates": [ -38.476388, -12.783056 ] } },
{ "type": "Feature", "properties": { "tipo": "PORTO", "nome": "Terminal Navecunha", "categoria": "Terminal de uso privado", "uf": "AM" }, "geometry": { "type": "Point", "coordinates": [ -59.999166, -3.154443 ] } },
{ "type": "Feature", "properties": { "tipo": "PORTO", "nome": "Terminal Fogás", "categoria": "Terminal de uso privado", "uf": "RO" }, "geometry": { "type": "Point", "coordinates": [ -63.919443, -8.734443 ] } },
{ "type": "Feature", "properties": { "tipo": "PORTO", "nome": "Terminal Estaleiro Mauá", "categoria": "Terminal de uso privado", "uf": "RJ" }, "geometry": { "type": "Point", "coordinates": [ -43.129167, -22.876944 ] } },
{ "type": "Feature", "properties": { "tipo": "PORTO", "nome": "Terminal Portuário do Pecém", "categoria": "Terminal de uso privado", "uf": "CE" }, "geometry": { "type": "Point", "coordinates": [ -38.796388, -3.526667 ] } },
{ "type": "Feature", "properties": { "tipo": "PORTO", "nome": "Porto Chibatão", "categoria": "Terminal de uso privado", "uf": "AM" }, "geometry": { "type": "Point", "coordinates": [ -59.99111, -3.16 ] } },
{ "type": "Feature", "properties": { "tipo": "PORTO", "nome": "Abaetetuba", "categoria": "IP4", "uf": "PA" }, "geometry": { "type": "Point", "coordinates": [ -49.023351, -1.710993 ] } },
{ "type": "Feature", "properties": { "tipo": "PORTO", "nome": "Terminal Aquaviário de São Sebastião (Almirante Barroso)", "categoria": "Terminal de uso privado", "uf": "SP" }, "geometry": { "type": "Point", "coordinates": [ -45.38611, -23.803889 ] } },
{ "type": "Feature", "properties": { "tipo": "PORTO", "nome": "Terminal Marítimo Ponte do Thun", "categoria": "Terminal de uso privado", "uf": "RJ" }, "geometry": { "type": "Point", "coordinates": [ -43.172221, -22.831944 ] } },
{ "type": "Feature", "properties": { "tipo": "PORTO", "nome": "Terminal Aquaviário de Osório", "categoria": "Terminal de uso privado", "uf": "RS" }, "geometry": { "type": "Point", "coordinates": [ -50.095193, -30.011903 ] } },
{ "type": "Feature", "properties": { "tipo": "PORTO", "nome": "Terminal Aquaviário de São Francisco do Sul", "categoria": "Terminal de uso privado", "uf": "SC" }, "geometry": { "type": "Point", "coordinates": [ -48.500971, -26.217361 ] } },
{ "type": "Feature", "properties": { "tipo": "PORTO", "nome": "Terminal Aquaviário de Ilha Redonda e Terminal Aquaviário da Ilha Comprida", "categoria": "Terminal de uso privado", "uf": "RJ" }, "geometry": { "type": "Point", "coordinates": [ -43.120417, -22.802361 ] } },
{ "type": "Feature", "properties": { "tipo": "PORTO", "nome": "Terminal Aquaviário de Angra dos Reis", "categoria": "Terminal de uso privado", "uf": "RJ" }, "geometry": { "type": "Point", "coordinates": [ -44.228889, -23.061388 ] } },
{ "type": "Feature", "properties": { "tipo": "PORTO", "nome": "Terminal Aquaviário da Ilha D'Água", "categoria": "Terminal de uso privado", "uf": "RJ" }, "geometry": { "type": "Point", "coordinates": [ -43.1625, -22.810417 ] } },
{ "type": "Feature", "properties": { "tipo": "PORTO", "nome": "Terminal Aquaviário de Madre de Deus", "categoria": "Terminal de uso privado", "uf": "BA" }, "geometry": { "type": "Point", "coordinates": [ -38.624305, -12.753888 ] } },
{ "type": "Feature", "properties": { "tipo": "PORTO", "nome": "Terminal Portuário de Presidente Epitácio", "categoria": "Terminal de uso privado", "uf": "SP" }, "geometry": { "type": "Point", "coordinates": [ -52.105417, -21.755138 ] } },
{ "type": "Feature", "properties": { "tipo": "PORTO", "nome": "Terminal Hidroviário de Porto Murtinho", "categoria": "Estação de transbordo de cargas", "uf": "MS" }, "geometry": { "type": "Point", "coordinates": [ -57.883611, -21.691666 ] } },
{ "type": "Feature", "properties": { "tipo": "PORTO", "nome": "Terminal Docas de Mato Grosso", "categoria": "Terminal de uso privado", "uf": "MT" }, "geometry": { "type": "Point", "coordinates": [ -57.699027, -16.073055 ] } },
{ "type": "Feature", "properties": { "tipo": "PORTO", "nome": "Chibatão Navegação e Comércio", "categoria": "Terminal de uso privado", "uf": "AM" }, "geometry": { "type": "Point", "coordinates": [ -59.993056, -3.156667 ] } },
{ "type": "Feature", "properties": { "tipo": "PORTO", "nome": "Terminal de Barcaças Luciano Villas Boas Machado", "categoria": "Terminal de uso privado", "uf": "BA" }, "geometry": { "type": "Point", "coordinates": [ -39.216388, -17.751388 ] } },
{ "type": "Feature", "properties": { "tipo": "PORTO", "nome": "Terminal Aquaviário de Guamaré", "categoria": "Terminal de uso privado", "uf": "RN" }, "geometry": { "type": "Point", "coordinates": [ -36.374166, -4.873611 ] } },
{ "type": "Feature", "properties": { "tipo": "PORTO", "nome": "Ibepar", "categoria": "Terminal de uso privado", "uf": "AM" }, "geometry": { "type": "Point", "coordinates": [ -60.076667, -3.095556 ] } },
{ "type": "Feature", "properties": { "tipo": "PORTO", "nome": "Terminal Aquaviário Solimões - Coari", "categoria": "Terminal de uso privado", "uf": "AM" }, "geometry": { "type": "Point", "coordinates": [ -63.160832, -3.944443 ] } },
{ "type": "Feature", "properties": { "tipo": "PORTO", "nome": "Terminal Aquaviário de Aracaju", "categoria": "Terminal de uso privado", "uf": "SE" }, "geometry": { "type": "Point", "coordinates": [ -37.013055, -11.043055 ] } },
{ "type": "Feature", "properties": { "tipo": "PORTO", "nome": "Belmont", "categoria": "Terminal de uso privado", "uf": "RO" }, "geometry": { "type": "Point", "coordinates": [ -63.92, -8.720277 ] } },
{ "type": "Feature", "properties": { "tipo": "PORTO", "nome": "Terminal Sanave de Manaus", "categoria": "Terminal de uso privado", "uf": "AM" }, "geometry": { "type": "Point", "coordinates": [ -60.055278, -3.117777 ] } },
{ "type": "Feature", "properties": { "tipo": "PORTO", "nome": "Terminal Aquaviário de Manaus", "categoria": "Terminal de uso privado", "uf": "AM" }, "geometry": { "type": "Point", "coordinates": [ -59.951667, -3.149722 ] } },
{ "type": "Feature", "properties": { "tipo": "PORTO", "nome": "Super Terminais Comércio e Indústria", "categoria": "Terminal de uso privado", "uf": "AM" }, "geometry": { "type": "Point", "coordinates": [ -59.99861, -3.156944 ] } },
{ "type": "Feature", "properties": { "tipo": "PORTO", "nome": "Cargill Agrícola", "categoria": "Terminal de uso privado", "uf": "RO" }, "geometry": { "type": "Point", "coordinates": [ -63.918889, -8.741111 ] } },
{ "type": "Feature", "properties": { "tipo": "PORTO", "nome": "Portonave - Terminais Portuários de Navegantes", "categoria": "Terminal de uso privado", "uf": "SC" }, "geometry": { "type": "Point", "coordinates": [ -48.662221, -26.897777 ] } },
{ "type": "Feature", "properties": { "tipo": "PORTO", "nome": "Terminal J. F. de Oliveira de Belém", "categoria": "Terminal de uso privado", "uf": "PA" }, "geometry": { "type": "Point", "coordinates": [ -48.481389, -1.356111 ] } },
{ "type": "Feature", "properties": { "tipo": "PORTO", "nome": "Terminal Marítimo de Ponta da Madeira", "categoria": "Terminal de uso privado", "uf": "MA" }, "geometry": { "type": "Point", "coordinates": [ -44.379167, -2.561943 ] } },
{ "type": "Feature", "properties": { "tipo": "PORTO", "nome": "Ocrim", "categoria": "Terminal de uso privado", "uf": "AM" }, "geometry": { "type": "Point", "coordinates": [ -60.005555, -3.151388 ] } },
{ "type": "Feature", "properties": { "tipo": "PORTO", "nome": "Porto CRA", "categoria": "Terminal de uso privado", "uf": "PA" }, "geometry": { "type": "Point", "coordinates": [ -48.485278, -1.334167 ] } },
{ "type": "Feature", "properties": { "tipo": "PORTO", "nome": "Terminal Graneleiro Hermasa", "categoria": "Terminal de uso privado", "uf": "AM" }, "geometry": { "type": "Point", "coordinates": [ -58.483611, -3.136111 ] } },
{ "type": "Feature", "properties": { "tipo": "PORTO", "nome": "Brasco Logística Offshore", "categoria": "Terminal de uso privado", "uf": "RJ" }, "geometry": { "type": "Point", "coordinates": [ -43.125, -22.872499 ] } },
{ "type": "Feature", "properties": { "tipo": "PORTO", "nome": "Terminal Aquaviário de Niterói", "categoria": "Terminal de uso privado", "uf": "RS" }, "geometry": { "type": "Point", "coordinates": [ -51.179028, -29.967916 ] } },
{ "type": "Feature", "properties": { "tipo": "PORTO", "nome": "Trocadeiro", "categoria": "Terminal de uso privado", "uf": "SC" }, "geometry": { "type": "Point", "coordinates": [ -48.683889, -26.888055 ] } },
{ "type": "Feature", "properties": { "tipo": "PORTO", "nome": "Estaleiro Brasfels", "categoria": "Terminal de uso privado", "uf": "RJ" }, "geometry": { "type": "Point", "coordinates": [ -44.247222, -23.0 ] } },
{ "type": "Feature", "properties": { "tipo": "PORTO", "nome": "UTC Engenharia", "categoria": "Terminal de uso privado", "uf": "RJ" }, "geometry": { "type": "Point", "coordinates": [ -43.111389, -22.867778 ] } },
{ "type": "Feature", "properties": { "tipo": "PORTO", "nome": "Mac Laren Estaleiros", "categoria": "Terminal de uso privado", "uf": "RJ" }, "geometry": { "type": "Point", "coordinates": [ -43.119861, -22.880693 ] } },
{ "type": "Feature", "properties": { "tipo": "PORTO", "nome": "Porto Itapoá Terminais Portuários", "categoria": "Terminal de uso privado", "uf": "SC" }, "geometry": { "type": "Point", "coordinates": [ -48.606138, -26.182916 ] } },
{ "type": "Feature", "properties": { "tipo": "PORTO", "nome": "Bertolini - Santana", "categoria": "Estação de transbordo de cargas", "uf": "AP" }, "geometry": { "type": "Point", "coordinates": [ -51.202778, -0.002778 ] } },
{ "type": "Feature", "properties": { "tipo": "PORTO", "nome": "Bertolini - Belém", "categoria": "Terminal de uso privado", "uf": "PA" }, "geometry": { "type": "Point", "coordinates": [ -48.480832, -1.35111 ] } },
{ "type": "Feature", "properties": { "tipo": "PORTO", "nome": "Gerdau Aços Longos", "categoria": "Terminal de uso privado", "uf": "BA" }, "geometry": { "type": "Point", "coordinates": [ -38.49875, -12.824583 ] } },
{ "type": "Feature", "properties": { "tipo": "PORTO", "nome": "Terminal Portuário Cotegipe", "categoria": "Terminal de uso privado", "uf": "BA" }, "geometry": { "type": "Point", "coordinates": [ -38.476944, -12.786388 ] } },
{ "type": "Feature", "properties": { "tipo": "PORTO", "nome": "Teporti", "categoria": "Terminal de uso privado", "uf": "SC" }, "geometry": { "type": "Point", "coordinates": [ -48.711388, -26.876667 ] } },
{ "type": "Feature", "properties": { "tipo": "PORTO", "nome": "Terminal Marítimo Miguel de Oliveira", "categoria": "Terminal de uso privado", "uf": "BA" }, "geometry": { "type": "Point", "coordinates": [ -38.485832, -12.786666 ] } },
{ "type": "Feature", "properties": { "tipo": "PORTO", "nome": "Bertolini - Santarém", "categoria": "Terminal de uso privado", "uf": "PA" }, "geometry": { "type": "Point", "coordinates": [ -54.694443, -2.426388 ] } },
{ "type": "Feature", "properties": { "tipo": "PORTO", "nome": "Terminal de Barcaças Oceânicas", "categoria": "Terminal de uso privado", "uf": "ES" }, "geometry": { "type": "Point", "coordinates": [ -40.221111, -20.258333 ] } },
{ "type": "Feature", "properties": { "tipo": "PORTO", "nome": "DP World Santos", "categoria": "Terminal de uso privado", "uf": "SP" }, "geometry": { "type": "Point", "coordinates": [ -46.318055, -23.924444 ] } },
{ "type": "Feature", "properties": { "tipo": "PORTO", "nome": "Barra do Rio Terminal Portuário", "categoria": "Terminal de uso privado", "uf": "SC" }, "geometry": { "type": "Point", "coordinates": [ -48.673611, -26.883055 ] } },
{ "type": "Feature", "properties": { "tipo": "PORTO", "nome": "Terminal Portuário Privativo da Alumar", "categoria": "Terminal de uso privado", "uf": "MA" }, "geometry": { "type": "Point", "coordinates": [ -44.360556, -2.678332 ] } },
{ "type": "Feature", "properties": { "tipo": "PORTO", "nome": "Terminal Aquaviário do Norte Capixaba", "categoria": "Terminal de uso privado", "uf": "ES" }, "geometry": { "type": "Point", "coordinates": [ -39.736111, -18.978332 ] } },
{ "type": "Feature", "properties": { "tipo": "PORTO", "nome": "Terminal Portuário Wellstream - TPW", "categoria": "Terminal de uso privado", "uf": "RJ" }, "geometry": { "type": "Point", "coordinates": [ -43.118056, -22.86625 ] } },
{ "type": "Feature", "properties": { "tipo": "PORTO", "nome": "Terminal Mita", "categoria": "Terminal de uso privado", "uf": "RS" }, "geometry": { "type": "Point", "coordinates": [ -51.865555, -29.811527 ] } },
{ "type": "Feature", "properties": { "tipo": "PORTO", "nome": "Carinhoso", "categoria": "Terminal de uso privado", "uf": "AM" }, "geometry": { "type": "Point", "coordinates": [ -59.900508, -3.111444 ] } },
{ "type": "Feature", "properties": { "tipo": "PORTO", "nome": "Terminal Privativo Zamin Ferrous Sistema Amapá", "categoria": "Terminal de uso privado", "uf": "AP" }, "geometry": { "type": "Point", "coordinates": [ -51.182222, -0.057361 ] } },
{ "type": "Feature", "properties": { "tipo": "PORTO", "nome": "TERFRON", "categoria": "Terminal de uso privado", "uf": "PA" }, "geometry": { "type": "Point", "coordinates": [ -48.727221, -1.49611 ] } },
{ "type": "Feature", "properties": { "tipo": "PORTO", "nome": "Portocel - Terminal Especializado de Barra do Riacho", "categoria": "Terminal de uso privado", "uf": "ES" }, "geometry": { "type": "Point", "coordinates": [ -40.057499, -19.840832 ] } },
{ "type": "Feature", "properties": { "tipo": "PORTO", "nome": "Terminal Hidroviário Cimbagé", "categoria": "Terminal de uso privado", "uf": "RS" }, "geometry": { "type": "Point", "coordinates": [ -52.342556, -31.785333 ] } },
{ "type": "Feature", "properties": { "tipo": "PORTO", "nome": "Terminal Fluvial de Juruti", "categoria": "Terminal de uso privado", "uf": "PA" }, "geometry": { "type": "Point", "coordinates": [ -56.10598, -2.173782 ] } },
{ "type": "Feature", "properties": { "tipo": "PORTO", "nome": "TERNIUM BR", "categoria": "Terminal de uso privado", "uf": "RJ" }, "geometry": { "type": "Point", "coordinates": [ -43.776944, -22.931111 ] } },
{ "type": "Feature", "properties": { "tipo": "PORTO", "nome": "Terminal Privativo de Imbituba", "categoria": "Terminal de uso privado", "uf": "SC" }, "geometry": { "type": "Point", "coordinates": [ -48.658056, -28.228888 ] } },
{ "type": "Feature", "properties": { "tipo": "PORTO", "nome": "Dunas", "categoria": "Terminal de uso privado", "uf": "RN" }, "geometry": { "type": "Point", "coordinates": [ -35.204861, -5.769582 ] } },
{ "type": "Feature", "properties": { "tipo": "PORTO", "nome": "Terminal Marítimo Braskem", "categoria": "Terminal de uso privado", "uf": "RJ" }, "geometry": { "type": "Point", "coordinates": [ -43.15375, -22.763888 ] } },
{ "type": "Feature", "properties": { "tipo": "PORTO", "nome": "Poly Terminais Portuários", "categoria": "Terminal de uso privado", "uf": "SC" }, "geometry": { "type": "Point", "coordinates": [ -48.70611, -26.87 ] } },
{ "type": "Feature", "properties": { "tipo": "PORTO", "nome": "Moss", "categoria": "Terminal de uso privado", "uf": "AM" }, "geometry": { "type": "Point", "coordinates": [ -60.000067, -3.153636 ] } },
{ "type": "Feature", "properties": { "tipo": "PORTO", "nome": "Terminal Flexível de GNL da Baía da Guanabara", "categoria": "Terminal de uso privado", "uf": "RJ" }, "geometry": { "type": "Point", "coordinates": [ -43.132083, -22.783055 ] } },
{ "type": "Feature", "properties": { "tipo": "PORTO", "nome": "Prysmian", "categoria": "Terminal de uso privado", "uf": "ES" }, "geometry": { "type": "Point", "coordinates": [ -40.349167, -20.326667 ] } },
{ "type": "Feature", "properties": { "tipo": "PORTO", "nome": "AIVEL", "categoria": "Terminal de uso privado", "uf": "RO" }, "geometry": { "type": "Point", "coordinates": [ -63.919722, -8.709861 ] } },
{ "type": "Feature", "properties": { "tipo": "PORTO", "nome": "Terbian - Terminal Bianchini", "categoria": "Terminal de uso privado", "uf": "RS" }, "geometry": { "type": "Point", "coordinates": [ -52.103194, -32.103332 ] } },
{ "type": "Feature", "properties": { "tipo": "PORTO", "nome": "Porto do Açu - Terminal de Minério", "categoria": "Terminal de uso privado", "uf": "RJ" }, "geometry": { "type": "Point", "coordinates": [ -40.998333, -21.814444 ] } },
{ "type": "Feature", "properties": { "tipo": "PORTO", "nome": "Estaleiro Navship", "categoria": "Registro - Estaleiro", "uf": "SC" }, "geometry": { "type": "Point", "coordinates": [ -48.690277, -26.879443 ] } },
{ "type": "Feature", "properties": { "tipo": "PORTO", "nome": "Porto Murucupi", "categoria": "Terminal de uso privado", "uf": "PA" }, "geometry": { "type": "Point", "coordinates": [ -48.778888, -1.567221 ] } },
{ "type": "Feature", "properties": { "tipo": "PORTO", "nome": "Mearim", "categoria": "Terminal de uso privado", "uf": "MA" }, "geometry": { "type": "Point", "coordinates": [ -44.404721, -2.872221 ] } },
{ "type": "Feature", "properties": { "tipo": "PORTO", "nome": "Terminal Marítimo Dow", "categoria": "Terminal de uso privado", "uf": "SP" }, "geometry": { "type": "Point", "coordinates": [ -46.286667, -23.982222 ] } },
{ "type": "Feature", "properties": { "tipo": "PORTO", "nome": "CMPC Guaíba", "categoria": "Terminal de uso privado", "uf": "RS" }, "geometry": { "type": "Point", "coordinates": [ -51.310277, -30.135833 ] } },
{ "type": "Feature", "properties": { "tipo": "PORTO", "nome": "Saladeiro", "categoria": "Terminal de uso privado", "uf": "MS" }, "geometry": { "type": "Point", "coordinates": [ -57.62361, -18.999027 ] } },
{ "type": "Feature", "properties": { "tipo": "PORTO", "nome": "Óbidos", "categoria": "Porto Público", "uf": "PA" }, "geometry": { "type": "Point", "coordinates": [ -55.531199, -1.902689 ] } },
{ "type": "Feature", "properties": { "tipo": "PORTO", "nome": "Supergasbrás", "categoria": "Terminal de uso privado", "uf": "RS" }, "geometry": { "type": "Point", "coordinates": [ -51.203611, -29.967916 ] } },
{ "type": "Feature", "properties": { "tipo": "PORTO", "nome": "Oleoplan", "categoria": "Terminal de uso privado", "uf": "RS" }, "geometry": { "type": "Point", "coordinates": [ -51.182361, -29.968471 ] } },
{ "type": "Feature", "properties": { "tipo": "PORTO", "nome": "Terminal Aquaviário da Ilha Comprida", "categoria": "Terminal de uso privado", "uf": "RJ" }, "geometry": { "type": "Point", "coordinates": [ -43.12375, -22.805278 ] } },
{ "type": "Feature", "properties": { "tipo": "PORTO", "nome": "Terminal de Gás do Sul - Tergasul", "categoria": "Terminal de uso privado", "uf": "RS" }, "geometry": { "type": "Point", "coordinates": [ -51.203749, -29.967082 ] } },
{ "type": "Feature", "properties": { "tipo": "PORTO", "nome": "Terminal Portuário Bunge Alimentos", "categoria": "Terminal de uso privado", "uf": "RS" }, "geometry": { "type": "Point", "coordinates": [ -52.102499, -32.099167 ] } },
{ "type": "Feature", "properties": { "tipo": "PORTO", "nome": "Porto Novo Rio", "categoria": "Terminal de uso privado", "uf": "RJ" }, "geometry": { "type": "Point", "coordinates": [ -43.218611, -22.872778 ] } },
{ "type": "Feature", "properties": { "tipo": "PORTO", "nome": "Base Ipiranga Santarém", "categoria": "Terminal de uso privado", "uf": "PA" }, "geometry": { "type": "Point", "coordinates": [ -54.695556, -2.425555 ] } },
{ "type": "Feature", "properties": { "tipo": "PORTO", "nome": "Porto Sudeste do Brasil", "categoria": "Terminal de uso privado", "uf": "RJ" }, "geometry": { "type": "Point", "coordinates": [ -43.852221, -22.925 ] } },
{ "type": "Feature", "properties": { "tipo": "PORTO", "nome": "Terminal Intermodal Cargill - Três Lagoas", "categoria": "Terminal de uso privado", "uf": "MS" }, "geometry": { "type": "Point", "coordinates": [ -51.641944, -20.805555 ] } },
{ "type": "Feature", "properties": { "tipo": "PORTO", "nome": "Porto do Açu - Terminal TMULT e TCAR", "categoria": "Terminal de uso privado", "uf": "RJ" }, "geometry": { "type": "Point", "coordinates": [ -41.020533, -21.853183 ] } },
{ "type": "Feature", "properties": { "tipo": "PORTO", "nome": "Estaleiro Atlântico Sul - EAS", "categoria": "Terminal de uso privado", "uf": "PE" }, "geometry": { "type": "Point", "coordinates": [ -34.972222, -8.381388 ] } },
{ "type": "Feature", "properties": { "tipo": "PORTO", "nome": "Britânia", "categoria": "Terminal de uso privado", "uf": "PR" }, "geometry": { "type": "Point", "coordinates": [ -54.306389, -24.651389 ] } },
{ "type": "Feature", "properties": { "tipo": "PORTO", "nome": "Terminal Aquaviário de Barra do Riacho", "categoria": "Terminal de uso privado", "uf": "ES" }, "geometry": { "type": "Point", "coordinates": [ -40.0625, -19.8425 ] } },
{ "type": "Feature", "properties": { "tipo": "PORTO", "nome": "ATR Logística - Chibatão", "categoria": "Estação de transbordo de cargas", "uf": "AM" }, "geometry": { "type": "Point", "coordinates": [ -59.995832, -3.156944 ] } },
{ "type": "Feature", "properties": { "tipo": "PORTO", "nome": "Itacal- Itacoatiara Calcários Ltda", "categoria": "Estação de transbordo de cargas", "uf": "AM" }, "geometry": { "type": "Point", "coordinates": [ -60.076667, -3.093888 ] } },
{ "type": "Feature", "properties": { "tipo": "PORTO", "nome": "Almeirim", "categoria": "Porto Público", "uf": "PA" }, "geometry": { "type": "Point", "coordinates": [ -52.576897, -1.532469 ] } },
{ "type": "Feature", "properties": { "tipo": "PORTO", "nome": "Altamira", "categoria": "IP4", "uf": "PA" }, "geometry": { "type": "Point", "coordinates": [ -52.2143, -3.216689 ] } },
{ "type": "Feature", "properties": { "tipo": "PORTO", "nome": "Alvarães", "categoria": "IP4", "uf": "AM" }, "geometry": { "type": "Point", "coordinates": [ -64.806799, -3.21103 ] } },
{ "type": "Feature", "properties": { "tipo": "PORTO", "nome": "Amaturá", "categoria": "IP4", "uf": "AM" }, "geometry": { "type": "Point", "coordinates": [ -68.1957, -3.359599 ] } },
{ "type": "Feature", "properties": { "tipo": "PORTO", "nome": "Anajás", "categoria": "Porto Público", "uf": "PA" }, "geometry": { "type": "Point", "coordinates": [ -49.939999, -0.986999 ] } },
{ "type": "Feature", "properties": { "tipo": "PORTO", "nome": "Anamã", "categoria": "IP4", "uf": "AM" }, "geometry": { "type": "Point", "coordinates": [ -61.405099, -3.582489 ] } },
{ "type": "Feature", "properties": { "tipo": "PORTO", "nome": "Ananindeua", "categoria": "IP4", "uf": "PA" }, "geometry": { "type": "Point", "coordinates": [ -48.3785, -1.320429 ] } },
{ "type": "Feature", "properties": { "tipo": "PORTO", "nome": "Anori", "categoria": "IP4", "uf": "AM" }, "geometry": { "type": "Point", "coordinates": [ -61.659599, -3.748679 ] } },
{ "type": "Feature", "properties": { "tipo": "PORTO", "nome": "Apuí", "categoria": "IP4", "uf": "AM" }, "geometry": { "type": "Point", "coordinates": [ -60.660558, -7.500002 ] } },
{ "type": "Feature", "properties": { "tipo": "PORTO", "nome": "Atalaia do Norte", "categoria": "IP4", "uf": "AM" }, "geometry": { "type": "Point", "coordinates": [ -70.1932, -4.367649 ] } },
{ "type": "Feature", "properties": { "tipo": "PORTO", "nome": "Augusto Corrêa", "categoria": "IP4", "uf": "PA" }, "geometry": { "type": "Point", "coordinates": [ -46.635699, -1.02435 ] } },
{ "type": "Feature", "properties": { "tipo": "PORTO", "nome": "Autazes", "categoria": "IP4", "uf": "AM" }, "geometry": { "type": "Point", "coordinates": [ -59.1308, -3.57905 ] } },
{ "type": "Feature", "properties": { "tipo": "PORTO", "nome": "Aveiro", "categoria": "IP4", "uf": "PA" }, "geometry": { "type": "Point", "coordinates": [ -55.323799, -3.604849 ] } },
{ "type": "Feature", "properties": { "tipo": "PORTO", "nome": "Barcarena", "categoria": "Porto Público", "uf": "PA" }, "geometry": { "type": "Point", "coordinates": [ -48.591099, -1.492289 ] } },
{ "type": "Feature", "properties": { "tipo": "PORTO", "nome": "Barcelos", "categoria": "IP4", "uf": "AM" }, "geometry": { "type": "Point", "coordinates": [ -62.9253, -0.96913 ] } },
{ "type": "Feature", "properties": { "tipo": "PORTO", "nome": "Barreirinha", "categoria": "IP4", "uf": "AM" }, "geometry": { "type": "Point", "coordinates": [ -57.071199, -2.792729 ] } },
{ "type": "Feature", "properties": { "tipo": "PORTO", "nome": "Belo Monte", "categoria": "Porto Público", "uf": "PA" }, "geometry": { "type": "Point", "coordinates": [ -51.954, -2.590999 ] } },
{ "type": "Feature", "properties": { "tipo": "PORTO", "nome": "Benjamin Constant", "categoria": "IP4", "uf": "AM" }, "geometry": { "type": "Point", "coordinates": [ -70.0284, -4.373238 ] } },
{ "type": "Feature", "properties": { "tipo": "PORTO", "nome": "Beruri", "categoria": "IP4", "uf": "AM" }, "geometry": { "type": "Point", "coordinates": [ -61.375599, -3.89739 ] } },
{ "type": "Feature", "properties": { "tipo": "PORTO", "nome": "Boa Vista", "categoria": "Porto Público", "uf": "RR" }, "geometry": { "type": "Point", "coordinates": [ -60.666182, 2.816352 ] } },
{ "type": "Feature", "properties": { "tipo": "PORTO", "nome": "Boa Vista do Ramos", "categoria": "IP4", "uf": "AM" }, "geometry": { "type": "Point", "coordinates": [ -57.5897, -2.969718 ] } },
{ "type": "Feature", "properties": { "tipo": "PORTO", "nome": "Boca do Acre", "categoria": "IP4", "uf": "AM" }, "geometry": { "type": "Point", "coordinates": [ -67.399699, -8.751538 ] } },
{ "type": "Feature", "properties": { "tipo": "PORTO", "nome": "Borba", "categoria": "IP4", "uf": "AM" }, "geometry": { "type": "Point", "coordinates": [ -59.593299, -4.385489 ] } },
{ "type": "Feature", "properties": { "tipo": "PORTO", "nome": "Brasiléia", "categoria": "Porto Público", "uf": "AC" }, "geometry": { "type": "Point", "coordinates": [ -68.748, -11.009999 ] } },
{ "type": "Feature", "properties": { "tipo": "PORTO", "nome": "Bujaru", "categoria": "Porto Público", "uf": "PA" }, "geometry": { "type": "Point", "coordinates": [ -48.045, -1.514999 ] } },
{ "type": "Feature", "properties": { "tipo": "PORTO", "nome": "Caapiranga", "categoria": "IP4", "uf": "AM" }, "geometry": { "type": "Point", "coordinates": [ -61.2107, -3.33257 ] } },
{ "type": "Feature", "properties": { "tipo": "PORTO", "nome": "Cabixi", "categoria": "Porto Público", "uf": "RO" }, "geometry": { "type": "Point", "coordinates": [ -60.79448, -13.653947 ] } },
{ "type": "Feature", "properties": { "tipo": "PORTO", "nome": "Cacau Pereira", "categoria": "IP4", "uf": "AM" }, "geometry": { "type": "Point", "coordinates": [ -60.092274, -3.154131 ] } },
{ "type": "Feature", "properties": { "tipo": "PORTO", "nome": "Cachoeira Rasteira", "categoria": "Porto Público", "uf": "PA" }, "geometry": { "type": "Point", "coordinates": [ -57.5955, -8.736866 ] } },
{ "type": "Feature", "properties": { "tipo": "PORTO", "nome": "Porto Velho – Cai N’ Água", "categoria": "IP4", "uf": "RO" }, "geometry": { "type": "Point", "coordinates": [ -63.904, -8.762 ] } },
{ "type": "Feature", "properties": { "tipo": "PORTO", "nome": "Cametá", "categoria": "IP4", "uf": "PA" }, "geometry": { "type": "Point", "coordinates": [ -49.4975, -2.247679 ] } },
{ "type": "Feature", "properties": { "tipo": "PORTO", "nome": "Canutama", "categoria": "IP4", "uf": "AM" }, "geometry": { "type": "Point", "coordinates": [ -64.382999, -6.53563 ] } },
{ "type": "Feature", "properties": { "tipo": "PORTO", "nome": "Caracaraí", "categoria": "IP4", "uf": "RR" }, "geometry": { "type": "Point", "coordinates": [ -61.124935, 1.822937 ] } },
{ "type": "Feature", "properties": { "tipo": "PORTO", "nome": "Carauari", "categoria": "IP4", "uf": "AM" }, "geometry": { "type": "Point", "coordinates": [ -66.894998, -4.88095 ] } },
{ "type": "Feature", "properties": { "tipo": "PORTO", "nome": "Careiro da Várzea", "categoria": "IP4", "uf": "AM" }, "geometry": { "type": "Point", "coordinates": [ -59.8686, -3.18956 ] } },
{ "type": "Feature", "properties": { "tipo": "PORTO", "nome": "Coari", "categoria": "IP4", "uf": "AM" }, "geometry": { "type": "Point", "coordinates": [ -63.1426, -4.082588 ] } },
{ "type": "Feature", "properties": { "tipo": "PORTO", "nome": "Codajás", "categoria": "IP4", "uf": "AM" }, "geometry": { "type": "Point", "coordinates": [ -62.061999, -3.84405 ] } },
{ "type": "Feature", "properties": { "tipo": "PORTO", "nome": "Colares", "categoria": "IP4", "uf": "PA" }, "geometry": { "type": "Point", "coordinates": [ -48.2888, -0.92983 ] } },
{ "type": "Feature", "properties": { "tipo": "PORTO", "nome": "Costa Marques", "categoria": "Porto Público", "uf": "RO" }, "geometry": { "type": "Point", "coordinates": [ -64.227, -12.445 ] } },
{ "type": "Feature", "properties": { "tipo": "PORTO", "nome": "Cruzeiro do Sul", "categoria": "Porto Público", "uf": "AC" }, "geometry": { "type": "Point", "coordinates": [ -72.667, -7.639179 ] } },
{ "type": "Feature", "properties": { "tipo": "PORTO", "nome": "Cucuí", "categoria": "Porto Público", "uf": "AM" }, "geometry": { "type": "Point", "coordinates": [ -66.837666, 1.184737 ] } },
{ "type": "Feature", "properties": { "tipo": "PORTO", "nome": "Cutias", "categoria": "Porto Público", "uf": "AP" }, "geometry": { "type": "Point", "coordinates": [ -50.801466, 0.972007 ] } },
{ "type": "Feature", "properties": { "tipo": "PORTO", "nome": "Destacamento Guaporé", "categoria": "Porto Público", "uf": "MT" }, "geometry": { "type": "Point", "coordinates": [ -60.34675, -14.004113 ] } },
{ "type": "Feature", "properties": { "tipo": "PORTO", "nome": "Eirunepé", "categoria": "IP4", "uf": "AM" }, "geometry": { "type": "Point", "coordinates": [ -69.866799, -6.66821 ] } },
{ "type": "Feature", "properties": { "tipo": "PORTO", "nome": "Envira", "categoria": "IP4", "uf": "AM" }, "geometry": { "type": "Point", "coordinates": [ -70.0254, -7.432648 ] } },
{ "type": "Feature", "properties": { "tipo": "PORTO", "nome": "Epitáciolândia", "categoria": "Porto Público", "uf": "AC" }, "geometry": { "type": "Point", "coordinates": [ -68.656066, -10.917203 ] } },
{ "type": "Feature", "properties": { "tipo": "PORTO", "nome": "Feijó", "categoria": "Porto Público", "uf": "AC" }, "geometry": { "type": "Point", "coordinates": [ -70.353999, -8.163999 ] } },
{ "type": "Feature", "properties": { "tipo": "PORTO", "nome": "Ferreira Gomes", "categoria": "Porto Público", "uf": "AP" }, "geometry": { "type": "Point", "coordinates": [ -51.179999, 0.857999 ] } },
{ "type": "Feature", "properties": { "tipo": "PORTO", "nome": "Floresta do Araguaia", "categoria": "IP4", "uf": "PA" }, "geometry": { "type": "Point", "coordinates": [ -49.3845, -7.492669 ] } },
{ "type": "Feature", "properties": { "tipo": "PORTO", "nome": "Fonte Boa", "categoria": "IP4", "uf": "AM" }, "geometry": { "type": "Point", "coordinates": [ -66.0921, -2.51141 ] } },
{ "type": "Feature", "properties": { "tipo": "PORTO", "nome": "Guajará", "categoria": "IP4", "uf": "AM" }, "geometry": { "type": "Point", "coordinates": [ -72.579385, -7.547776 ] } },
{ "type": "Feature", "properties": { "tipo": "PORTO", "nome": "Gurupá", "categoria": "Porto Público", "uf": "PA" }, "geometry": { "type": "Point", "coordinates": [ -51.64, -1.405 ] } },
{ "type": "Feature", "properties": { "tipo": "PORTO", "nome": "Humaitá", "categoria": "IP4", "uf": "AM" }, "geometry": { "type": "Point", "coordinates": [ -63.019799, -7.50426 ] } },
{ "type": "Feature", "properties": { "tipo": "PORTO", "nome": "Iauaretê", "categoria": "Porto Público", "uf": "AM" }, "geometry": { "type": "Point", "coordinates": [ -69.190187, 0.606003 ] } },
{ "type": "Feature", "properties": { "tipo": "PORTO", "nome": "Ipixuna", "categoria": "IP4", "uf": "AM" }, "geometry": { "type": "Point", "coordinates": [ -71.693899, -7.052699 ] } },
{ "type": "Feature", "properties": { "tipo": "PORTO", "nome": "Iranduba (Solimões)", "categoria": "IP4", "uf": "AM" }, "geometry": { "type": "Point", "coordinates": [ -60.192696, -3.277973 ] } },
{ "type": "Feature", "properties": { "tipo": "PORTO", "nome": "Itacoatiara", "categoria": "IP4", "uf": "AM" }, "geometry": { "type": "Point", "coordinates": [ -58.440399, -3.151759 ] } },
{ "type": "Feature", "properties": { "tipo": "PORTO", "nome": "Itacoatiara (novo)", "categoria": "IP4", "uf": "AM" }, "geometry": { "type": "Point", "coordinates": [ -59.025385, -3.216193 ] } },
{ "type": "Feature", "properties": { "tipo": "PORTO", "nome": "Itaituba", "categoria": "Porto Público", "uf": "PA" }, "geometry": { "type": "Point", "coordinates": [ -55.985187, -4.273577 ] } },
{ "type": "Feature", "properties": { "tipo": "PORTO", "nome": "Itamarati", "categoria": "IP4", "uf": "AM" }, "geometry": { "type": "Point", "coordinates": [ -68.245024, -6.440318 ] } },
{ "type": "Feature", "properties": { "tipo": "PORTO", "nome": "Itapiranga", "categoria": "IP4", "uf": "AM" }, "geometry": { "type": "Point", "coordinates": [ -58.021599, -2.749839 ] } },
{ "type": "Feature", "properties": { "tipo": "PORTO", "nome": "Itaúba", "categoria": "Porto Público", "uf": "MT" }, "geometry": { "type": "Point", "coordinates": [ -55.304581, -11.096828 ] } },
{ "type": "Feature", "properties": { "tipo": "PORTO", "nome": "Itaubal", "categoria": "Porto Público", "uf": "AP" }, "geometry": { "type": "Point", "coordinates": [ -50.589216, 0.421294 ] } },
{ "type": "Feature", "properties": { "tipo": "PORTO", "nome": "Itupiranga", "categoria": "IP4", "uf": "PA" }, "geometry": { "type": "Point", "coordinates": [ -49.324899, -5.134439 ] } },
{ "type": "Feature", "properties": { "tipo": "PORTO", "nome": "Jacareacanga", "categoria": "Porto Público", "uf": "PA" }, "geometry": { "type": "Point", "coordinates": [ -57.736131, -6.211481 ] } },
{ "type": "Feature", "properties": { "tipo": "PORTO", "nome": "Japurá", "categoria": "IP4", "uf": "AM" }, "geometry": { "type": "Point", "coordinates": [ -66.995586, -1.877274 ] } },
{ "type": "Feature", "properties": { "tipo": "PORTO", "nome": "Ji-Paraná", "categoria": "Porto Público", "uf": "RO" }, "geometry": { "type": "Point", "coordinates": [ -61.942896, -10.879786 ] } },
{ "type": "Feature", "properties": { "tipo": "PORTO", "nome": "Jordão", "categoria": "Porto Público", "uf": "AC" }, "geometry": { "type": "Point", "coordinates": [ -71.949773, -9.192762 ] } },
{ "type": "Feature", "properties": { "tipo": "PORTO", "nome": "Juruá", "categoria": "IP4", "uf": "AM" }, "geometry": { "type": "Point", "coordinates": [ -66.061599, -3.472259 ] } },
{ "type": "Feature", "properties": { "tipo": "PORTO", "nome": "Juruti", "categoria": "IP4", "uf": "PA" }, "geometry": { "type": "Point", "coordinates": [ -56.0951, -2.15234 ] } },
{ "type": "Feature", "properties": { "tipo": "PORTO", "nome": "Jutaí", "categoria": "IP4", "uf": "AM" }, "geometry": { "type": "Point", "coordinates": [ -66.7667, -2.74291 ] } },
{ "type": "Feature", "properties": { "tipo": "PORTO", "nome": "Lábrea", "categoria": "IP4", "uf": "AM" }, "geometry": { "type": "Point", "coordinates": [ -64.794499, -7.257189 ] } },
{ "type": "Feature", "properties": { "tipo": "PORTO", "nome": "Laranjal do Jari", "categoria": "Porto Público", "uf": "AP" }, "geometry": { "type": "Point", "coordinates": [ -52.536621, -0.853148 ] } },
{ "type": "Feature", "properties": { "tipo": "PORTO", "nome": "Limoeiro do Ajuru", "categoria": "IP4", "uf": "PA" }, "geometry": { "type": "Point", "coordinates": [ -49.380499, -1.893418 ] } },
{ "type": "Feature", "properties": { "tipo": "PORTO", "nome": "Machadinho  D'Oeste", "categoria": "Porto Público", "uf": "RO" }, "geometry": { "type": "Point", "coordinates": [ -61.640936, -9.163663 ] } },
{ "type": "Feature", "properties": { "tipo": "PORTO", "nome": "Manacapuru", "categoria": "IP4", "uf": "AM" }, "geometry": { "type": "Point", "coordinates": [ -60.6212, -3.302909 ] } },
{ "type": "Feature", "properties": { "tipo": "PORTO", "nome": "Manaquiri", "categoria": "IP4", "uf": "AM" }, "geometry": { "type": "Point", "coordinates": [ -60.4587, -3.428068 ] } },
{ "type": "Feature", "properties": { "tipo": "PORTO", "nome": "Manaus Moderna", "categoria": "Porto Público", "uf": "AM" }, "geometry": { "type": "Point", "coordinates": [ -60.02287, -3.139872 ] } },
{ "type": "Feature", "properties": { "tipo": "PORTO", "nome": "Mâncio Lima", "categoria": "Porto Público", "uf": "AC" }, "geometry": { "type": "Point", "coordinates": [ -72.899895, -7.602456 ] } },
{ "type": "Feature", "properties": { "tipo": "PORTO", "nome": "Manicoré", "categoria": "IP4", "uf": "AM" }, "geometry": { "type": "Point", "coordinates": [ -61.300646, -5.803879 ] } },
{ "type": "Feature", "properties": { "tipo": "PORTO", "nome": "Manoel Urbano", "categoria": "Porto Público", "uf": "AC" }, "geometry": { "type": "Point", "coordinates": [ -69.26, -8.838998 ] } },
{ "type": "Feature", "properties": { "tipo": "PORTO", "nome": "Maraã", "categoria": "IP4", "uf": "AM" }, "geometry": { "type": "Point", "coordinates": [ -65.5912, -1.861089 ] } },
{ "type": "Feature", "properties": { "tipo": "PORTO", "nome": "Marechal Thaumaturgo", "categoria": "Porto Público", "uf": "AC" }, "geometry": { "type": "Point", "coordinates": [ -72.785878, -8.947211 ] } },
{ "type": "Feature", "properties": { "tipo": "PORTO", "nome": "Maués", "categoria": "IP4", "uf": "AM" }, "geometry": { "type": "Point", "coordinates": [ -57.720799, -3.39223 ] } },
{ "type": "Feature", "properties": { "tipo": "PORTO", "nome": "Mazagão", "categoria": "Porto Público", "uf": "AP" }, "geometry": { "type": "Point", "coordinates": [ -51.279992, -0.128838 ] } },
{ "type": "Feature", "properties": { "tipo": "PORTO", "nome": "Miritituba", "categoria": "Porto Público", "uf": "PA" }, "geometry": { "type": "Point", "coordinates": [ -55.975186, -4.298649 ] } },
{ "type": "Feature", "properties": { "tipo": "PORTO", "nome": "Moju", "categoria": "IP4", "uf": "PA" }, "geometry": { "type": "Point", "coordinates": [ -48.7655, -1.88254 ] } },
{ "type": "Feature", "properties": { "tipo": "PORTO", "nome": "Monte Alegre", "categoria": "IP4", "uf": "PA" }, "geometry": { "type": "Point", "coordinates": [ -54.0703, -2.009489 ] } },
{ "type": "Feature", "properties": { "tipo": "PORTO", "nome": "Moura", "categoria": "Porto Público", "uf": "AM" }, "geometry": { "type": "Point", "coordinates": [ -62.923999, -0.975 ] } },
{ "type": "Feature", "properties": { "tipo": "PORTO", "nome": "Muaná", "categoria": "IP4", "uf": "PA" }, "geometry": { "type": "Point", "coordinates": [ -49.2162, -1.52855 ] } },
{ "type": "Feature", "properties": { "tipo": "PORTO", "nome": "Nhamundá", "categoria": "IP4", "uf": "AM" }, "geometry": { "type": "Point", "coordinates": [ -56.712699, -2.192868 ] } },
{ "type": "Feature", "properties": { "tipo": "PORTO", "nome": "Nova Mamoré", "categoria": "Porto Público", "uf": "RO" }, "geometry": { "type": "Point", "coordinates": [ -65.376867, -10.3944 ] } },
{ "type": "Feature", "properties": { "tipo": "PORTO", "nome": "Nova Olinda do Norte", "categoria": "IP4", "uf": "AM" }, "geometry": { "type": "Point", "coordinates": [ -59.093899, -3.88838 ] } },
{ "type": "Feature", "properties": { "tipo": "PORTO", "nome": "Novo Airão", "categoria": "IP4", "uf": "AM" }, "geometry": { "type": "Point", "coordinates": [ -60.9444, -2.621879 ] } },
{ "type": "Feature", "properties": { "tipo": "PORTO", "nome": "Novo Aripuanã", "categoria": "IP4", "uf": "AM" }, "geometry": { "type": "Point", "coordinates": [ -60.3793, -5.119379 ] } },
{ "type": "Feature", "properties": { "tipo": "PORTO", "nome": "Oeiras do Pará", "categoria": "IP4", "uf": "PA" }, "geometry": { "type": "Point", "coordinates": [ -49.840605, -1.9178 ] } },
{ "type": "Feature", "properties": { "tipo": "PORTO", "nome": "Oiapoque", "categoria": "Porto Público", "uf": "AP" }, "geometry": { "type": "Point", "coordinates": [ -51.860789, 3.823604 ] } },
{ "type": "Feature", "properties": { "tipo": "PORTO", "nome": "Oliveira Machado", "categoria": "Porto Público", "uf": "AM" }, "geometry": { "type": "Point", "coordinates": [ -60.016439, -3.142552 ] } },
{ "type": "Feature", "properties": { "tipo": "PORTO", "nome": "Oriximiná", "categoria": "IP4", "uf": "PA" }, "geometry": { "type": "Point", "coordinates": [ -55.871899, -1.763579 ] } },
{ "type": "Feature", "properties": { "tipo": "PORTO", "nome": "Parintins", "categoria": "IP4", "uf": "AM" }, "geometry": { "type": "Point", "coordinates": [ -56.734099, -2.624058 ] } },
{ "type": "Feature", "properties": { "tipo": "PORTO", "nome": "Parintins (Vila Amazonas)", "categoria": "IP4", "uf": "AM" }, "geometry": { "type": "Point", "coordinates": [ -56.736699, -2.625939 ] } },
{ "type": "Feature", "properties": { "tipo": "PORTO", "nome": "Pauiní", "categoria": "IP4", "uf": "AM" }, "geometry": { "type": "Point", "coordinates": [ -66.998999, -7.717469 ] } },
{ "type": "Feature", "properties": { "tipo": "PORTO", "nome": "Pedra Branca do Amapari", "categoria": "Porto Público", "uf": "AP" }, "geometry": { "type": "Point", "coordinates": [ -51.945877, 0.760865 ] } },
{ "type": "Feature", "properties": { "tipo": "PORTO", "nome": "Pimenteiras do Oeste", "categoria": "Porto Público", "uf": "RO" }, "geometry": { "type": "Point", "coordinates": [ -61.046999, -13.483 ] } },
{ "type": "Feature", "properties": { "tipo": "PORTO", "nome": "Plácido de Castro", "categoria": "Porto Público", "uf": "AC" }, "geometry": { "type": "Point", "coordinates": [ -67.134115, -10.292313 ] } },
{ "type": "Feature", "properties": { "tipo": "PORTO", "nome": "Portel", "categoria": "IP4", "uf": "PA" }, "geometry": { "type": "Point", "coordinates": [ -50.8248, -1.936638 ] } },
{ "type": "Feature", "properties": { "tipo": "PORTO", "nome": "Porto Acre", "categoria": "Porto Público", "uf": "AC" }, "geometry": { "type": "Point", "coordinates": [ -67.5313, -9.589311 ] } },
{ "type": "Feature", "properties": { "tipo": "PORTO", "nome": "Porto Cotriguaçu", "categoria": "Porto Público", "uf": "MT" }, "geometry": { "type": "Point", "coordinates": [ -58.235419, -9.879124 ] } },
{ "type": "Feature", "properties": { "tipo": "PORTO", "nome": "Porto De Moz", "categoria": "Porto Público", "uf": "PA" }, "geometry": { "type": "Point", "coordinates": [ -52.247834, -1.75267 ] } },
{ "type": "Feature", "properties": { "tipo": "PORTO", "nome": "Porto do Pólo Industrial de Manaus", "categoria": "Porto Público", "uf": "AM" }, "geometry": { "type": "Point", "coordinates": [ -59.925672, -3.120876 ] } },
{ "type": "Feature", "properties": { "tipo": "PORTO", "nome": "Porto dos Gaúchos", "categoria": "Porto Público", "uf": "MT" }, "geometry": { "type": "Point", "coordinates": [ -57.414, -11.535 ] } },
{ "type": "Feature", "properties": { "tipo": "PORTO", "nome": "Porto Grande", "categoria": "Porto Público", "uf": "AP" }, "geometry": { "type": "Point", "coordinates": [ -51.412999, 0.712999 ] } },
{ "type": "Feature", "properties": { "tipo": "PORTO", "nome": "Porto Velho – Rio Candeias", "categoria": "Porto Público", "uf": "RO" }, "geometry": { "type": "Point", "coordinates": [ -63.720794, -8.800377 ] } },
{ "type": "Feature", "properties": { "tipo": "PORTO", "nome": "Porto Velho (novo)", "categoria": "Porto Público", "uf": "RO" }, "geometry": { "type": "Point", "coordinates": [ -63.729372, -8.588092 ] } },
{ "type": "Feature", "properties": { "tipo": "PORTO", "nome": "Porto Vitória", "categoria": "Porto Público", "uf": "PA" }, "geometry": { "type": "Point", "coordinates": [ -52.009199, -2.88389 ] } },
{ "type": "Feature", "properties": { "tipo": "PORTO", "nome": "Porto Walter", "categoria": "Porto Público", "uf": "AC" }, "geometry": { "type": "Point", "coordinates": [ -72.743999, -8.268999 ] } },
{ "type": "Feature", "properties": { "tipo": "PORTO", "nome": "Pracuúba", "categoria": "Porto Público", "uf": "AP" }, "geometry": { "type": "Point", "coordinates": [ -50.790999, 1.743 ] } },
{ "type": "Feature", "properties": { "tipo": "PORTO", "nome": "Prainha", "categoria": "Porto Público", "uf": "PA" }, "geometry": { "type": "Point", "coordinates": [ -53.478512, -1.808002 ] } },
{ "type": "Feature", "properties": { "tipo": "PORTO", "nome": "Quatipuru - Boa Vista", "categoria": "IP4", "uf": "PA" }, "geometry": { "type": "Point", "coordinates": [ -47.070399, -0.90124 ] } },
{ "type": "Feature", "properties": { "tipo": "PORTO", "nome": "Quatipuru - Sede", "categoria": "IP4", "uf": "PA" }, "geometry": { "type": "Point", "coordinates": [ -47.0045, -0.89658 ] } },
{ "type": "Feature", "properties": { "tipo": "PORTO", "nome": "Rio Branco", "categoria": "Porto Público", "uf": "AC" }, "geometry": { "type": "Point", "coordinates": [ -67.809499, -9.979599 ] } },
{ "type": "Feature", "properties": { "tipo": "PORTO", "nome": "Rio Preto da Eva", "categoria": "IP4", "uf": "AM" }, "geometry": { "type": "Point", "coordinates": [ -59.7027, -2.699429 ] } },
{ "type": "Feature", "properties": { "tipo": "PORTO", "nome": "Rodrigues Alves", "categoria": "Porto Público", "uf": "AC" }, "geometry": { "type": "Point", "coordinates": [ -72.647017, -7.732515 ] } },
{ "type": "Feature", "properties": { "tipo": "PORTO", "nome": "Salinópolis", "categoria": "Porto Público", "uf": "PA" }, "geometry": { "type": "Point", "coordinates": [ -47.346379, -0.612736 ] } },
{ "type": "Feature", "properties": { "tipo": "PORTO", "nome": "Santa Bárbara do Pará", "categoria": "IP4", "uf": "PA" }, "geometry": { "type": "Point", "coordinates": [ -48.329799, -1.238788 ] } },
{ "type": "Feature", "properties": { "tipo": "PORTO", "nome": "Santa Isabel do Rio Negro", "categoria": "IP4", "uf": "AM" }, "geometry": { "type": "Point", "coordinates": [ -65.021198, -0.416789 ] } },
{ "type": "Feature", "properties": { "tipo": "PORTO", "nome": "Santa Maria das Barreiras", "categoria": "IP4", "uf": "PA" }, "geometry": { "type": "Point", "coordinates": [ -49.716, -8.871909 ] } },
{ "type": "Feature", "properties": { "tipo": "PORTO", "nome": "Santa Rosa do Purus", "categoria": "Porto Público", "uf": "AC" }, "geometry": { "type": "Point", "coordinates": [ -70.492102, -9.430551 ] } },
{ "type": "Feature", "properties": { "tipo": "PORTO", "nome": "Santarém (novo)", "categoria": "Porto Público", "uf": "PA" }, "geometry": { "type": "Point", "coordinates": [ -47.4003, -0.929409 ] } },
{ "type": "Feature", "properties": { "tipo": "PORTO", "nome": "Santarém – Terminal de Cargas", "categoria": "IP4", "uf": "PA" }, "geometry": { "type": "Point", "coordinates": [ -54.721971, -2.418942 ] } },
{ "type": "Feature", "properties": { "tipo": "PORTO", "nome": "Santo Antônio do Içá", "categoria": "IP4", "uf": "AM" }, "geometry": { "type": "Point", "coordinates": [ -67.9461, -3.107629 ] } },
{ "type": "Feature", "properties": { "tipo": "PORTO", "nome": "Santo Antônio do Tauá", "categoria": "IP4", "uf": "PA" }, "geometry": { "type": "Point", "coordinates": [ -48.223599, -1.107018 ] } },
{ "type": "Feature", "properties": { "tipo": "PORTO", "nome": "São Félix do Xingu", "categoria": "IP4", "uf": "PA" }, "geometry": { "type": "Point", "coordinates": [ -51.9936, -6.63991 ] } },
{ "type": "Feature", "properties": { "tipo": "PORTO", "nome": "São Gabriel da Cachoeira", "categoria": "IP4", "uf": "AM" }, "geometry": { "type": "Point", "coordinates": [ -67.092399, -0.128989 ] } },
{ "type": "Feature", "properties": { "tipo": "PORTO", "nome": "São João do Araguaia", "categoria": "IP4", "uf": "PA" }, "geometry": { "type": "Point", "coordinates": [ -48.788899, -5.356029 ] } },
{ "type": "Feature", "properties": { "tipo": "PORTO", "nome": "São Miguel do Guamá", "categoria": "IP4", "uf": "PA" }, "geometry": { "type": "Point", "coordinates": [ -47.4846, -1.626509 ] } },
{ "type": "Feature", "properties": { "tipo": "PORTO", "nome": "São Paulo de Olivença", "categoria": "IP4", "uf": "AM" }, "geometry": { "type": "Point", "coordinates": [ -68.951099, -3.464329 ] } },
{ "type": "Feature", "properties": { "tipo": "PORTO", "nome": "São Raimundo", "categoria": "IP4", "uf": "AM" }, "geometry": { "type": "Point", "coordinates": [ -60.042799, -3.12483 ] } },
{ "type": "Feature", "properties": { "tipo": "PORTO", "nome": "São Sebastião da Boa Vista", "categoria": "IP4", "uf": "PA" }, "geometry": { "type": "Point", "coordinates": [ -49.5322, -1.71707 ] } },
{ "type": "Feature", "properties": { "tipo": "PORTO", "nome": "São Sebastião do Uatumã", "categoria": "IP4", "uf": "AM" }, "geometry": { "type": "Point", "coordinates": [ -57.8703, -2.57268 ] } },
{ "type": "Feature", "properties": { "tipo": "PORTO", "nome": "Sena Madureira", "categoria": "Porto Público", "uf": "AC" }, "geometry": { "type": "Point", "coordinates": [ -68.663774, -9.080426 ] } },
{ "type": "Feature", "properties": { "tipo": "PORTO", "nome": "Senador José Porfírio", "categoria": "Porto Público", "uf": "PA" }, "geometry": { "type": "Point", "coordinates": [ -51.891201, -2.876501 ] } },
{ "type": "Feature", "properties": { "tipo": "PORTO", "nome": "Serra do Navio", "categoria": "Porto Público", "uf": "AP" }, "geometry": { "type": "Point", "coordinates": [ -52.036799, 0.903974 ] } },
{ "type": "Feature", "properties": { "tipo": "PORTO", "nome": "Silves", "categoria": "IP4", "uf": "AM" }, "geometry": { "type": "Point", "coordinates": [ -58.142406, -2.961771 ] } },
{ "type": "Feature", "properties": { "tipo": "PORTO", "nome": "Tabatinga", "categoria": "IP4", "uf": "AM" }, "geometry": { "type": "Point", "coordinates": [ -69.943899, -4.231359 ] } },
{ "type": "Feature", "properties": { "tipo": "PORTO", "nome": "Tapauá", "categoria": "IP4", "uf": "AM" }, "geometry": { "type": "Point", "coordinates": [ -63.1899, -5.62455 ] } },
{ "type": "Feature", "properties": { "tipo": "PORTO", "nome": "Tapuruquara", "categoria": "Porto Público", "uf": "AM" }, "geometry": { "type": "Point", "coordinates": [ -65.021198, -0.416789 ] } },
{ "type": "Feature", "properties": { "tipo": "PORTO", "nome": "Tarauacá", "categoria": "Porto Público", "uf": "AC" }, "geometry": { "type": "Point", "coordinates": [ -70.761199, -8.168699 ] } },
{ "type": "Feature", "properties": { "tipo": "PORTO", "nome": "Tartarugalzinho", "categoria": "Porto Público", "uf": "AP" }, "geometry": { "type": "Point", "coordinates": [ -50.858306, 1.516557 ] } },
{ "type": "Feature", "properties": { "tipo": "PORTO", "nome": "Tefé", "categoria": "IP4", "uf": "AM" }, "geometry": { "type": "Point", "coordinates": [ -64.435003, -3.517233 ] } },
{ "type": "Feature", "properties": { "tipo": "PORTO", "nome": "Tefé", "categoria": "IP4", "uf": "AM" }, "geometry": { "type": "Point", "coordinates": [ -64.710398, -3.34655 ] } },
{ "type": "Feature", "properties": { "tipo": "PORTO", "nome": "Terminal da Condor", "categoria": "Porto Público", "uf": "PA" }, "geometry": { "type": "Point", "coordinates": [ -48.402184, -1.453885 ] } },
{ "type": "Feature", "properties": { "tipo": "PORTO", "nome": "Terminal Pesqueiro", "categoria": "Porto Público", "uf": "AM" }, "geometry": { "type": "Point", "coordinates": [ -59.860674, -3.081581 ] } },
{ "type": "Feature", "properties": { "tipo": "PORTO", "nome": "Terra Santa", "categoria": "IP4", "uf": "PA" }, "geometry": { "type": "Point", "coordinates": [ -56.490999, -2.11072 ] } },
{ "type": "Feature", "properties": { "tipo": "PORTO", "nome": "Tonantins", "categoria": "IP4", "uf": "AM" }, "geometry": { "type": "Point", "coordinates": [ -67.799999, -2.87365 ] } },
{ "type": "Feature", "properties": { "tipo": "PORTO", "nome": "Uarini", "categoria": "IP4", "uf": "AM" }, "geometry": { "type": "Point", "coordinates": [ -65.107399, -2.98428 ] } },
{ "type": "Feature", "properties": { "tipo": "PORTO", "nome": "Urucará", "categoria": "IP4", "uf": "AM" }, "geometry": { "type": "Point", "coordinates": [ -57.7554, -2.53831 ] } },
{ "type": "Feature", "properties": { "tipo": "PORTO", "nome": "Urucurituba", "categoria": "IP4", "uf": "AM" }, "geometry": { "type": "Point", "coordinates": [ -58.158799, -3.128489 ] } },
{ "type": "Feature", "properties": { "tipo": "PORTO", "nome": "Vila Bittencourt", "categoria": "Porto Público", "uf": "AM" }, "geometry": { "type": "Point", "coordinates": [ -69.426388, -1.396388 ] } },
{ "type": "Feature", "properties": { "tipo": "PORTO", "nome": "Vila Ipiranga", "categoria": "Porto Público", "uf": "AM" }, "geometry": { "type": "Point", "coordinates": [ -69.687171, -2.883731 ] } },
{ "type": "Feature", "properties": { "tipo": "PORTO", "nome": "Viseu", "categoria": "IP4", "uf": "PA" }, "geometry": { "type": "Point", "coordinates": [ -46.137, -1.20706 ] } },
{ "type": "Feature", "properties": { "tipo": "PORTO", "nome": "Vitória do Jari", "categoria": "Porto Público", "uf": "AP" }, "geometry": { "type": "Point", "coordinates": [ -52.423606, -0.927606 ] } },
{ "type": "Feature", "properties": { "tipo": "PORTO", "nome": "Vitória do Xingu", "categoria": "Porto Público", "uf": "PA" }, "geometry": { "type": "Point", "coordinates": [ -51.960432, -2.885269 ] } },
{ "type": "Feature", "properties": { "tipo": "PORTO", "nome": "Xapuri", "categoria": "Porto Público", "uf": "AC" }, "geometry": { "type": "Point", "coordinates": [ -68.50525, -10.650599 ] } },
{ "type": "Feature", "properties": { "tipo": "PORTO", "nome": "Aracaju", "categoria": "Porto Público", "uf": "SE" }, "geometry": { "type": "Point", "coordinates": [ -37.047899, -10.9059 ] } },
{ "type": "Feature", "properties": { "tipo": "PORTO", "nome": "Campinho", "categoria": "Porto Público", "uf": "BA" }, "geometry": { "type": "Point", "coordinates": [ -38.949199, -13.928599 ] } },
{ "type": "Feature", "properties": { "tipo": "PORTO", "nome": "Porto-Sul", "categoria": "Porto Público", "uf": "BA" }, "geometry": { "type": "Point", "coordinates": [ -39.065144, -14.631325 ] } },
{ "type": "Feature", "properties": { "tipo": "PORTO", "nome": "Alcântara", "categoria": "Porto Público", "uf": "MA" }, "geometry": { "type": "Point", "coordinates": [ -44.4234, -2.406509 ] } },
{ "type": "Feature", "properties": { "tipo": "PORTO", "nome": "Água Doce do Maranhão", "categoria": "IP4", "uf": "MA" }, "geometry": { "type": "Point", "coordinates": [ -42.1167, -2.833438 ] } },
{ "type": "Feature", "properties": { "tipo": "PORTO", "nome": "Alto Alegre do Pindaré", "categoria": "Porto Público", "uf": "MA" }, "geometry": { "type": "Point", "coordinates": [ -45.902999, -3.689999 ] } },
{ "type": "Feature", "properties": { "tipo": "PORTO", "nome": "Arari", "categoria": "Porto Público", "uf": "MA" }, "geometry": { "type": "Point", "coordinates": [ -44.807114, -3.302168 ] } },
{ "type": "Feature", "properties": { "tipo": "PORTO", "nome": "Barra do Corda", "categoria": "Porto Público", "uf": "MA" }, "geometry": { "type": "Point", "coordinates": [ -45.2445, -5.503389 ] } },
{ "type": "Feature", "properties": { "tipo": "PORTO", "nome": "Bequimão", "categoria": "IP4", "uf": "MA" }, "geometry": { "type": "Point", "coordinates": [ -44.836825, -2.334291 ] } },
{ "type": "Feature", "properties": { "tipo": "PORTO", "nome": "Carolina", "categoria": "Porto Público", "uf": "MA" }, "geometry": { "type": "Point", "coordinates": [ -47.475099, -7.335869 ] } },
{ "type": "Feature", "properties": { "tipo": "PORTO", "nome": "Caxias", "categoria": "Porto Público", "uf": "MA" }, "geometry": { "type": "Point", "coordinates": [ -43.359299, -4.873689 ] } },
{ "type": "Feature", "properties": { "tipo": "PORTO", "nome": "Cururupu", "categoria": "IP4", "uf": "MA" }, "geometry": { "type": "Point", "coordinates": [ -44.8658, -1.826659 ] } },
{ "type": "Feature", "properties": { "tipo": "PORTO", "nome": "Espadarte", "categoria": "Porto Público", "uf": "PA" }, "geometry": { "type": "Point", "coordinates": [ -47.879643, -0.703913 ] } },
{ "type": "Feature", "properties": { "tipo": "PORTO", "nome": "Guimarães", "categoria": "IP4", "uf": "MA" }, "geometry": { "type": "Point", "coordinates": [ -44.596099, -2.13098 ] } },
{ "type": "Feature", "properties": { "tipo": "PORTO", "nome": "Imperatriz", "categoria": "Porto Público", "uf": "MA" }, "geometry": { "type": "Point", "coordinates": [ -47.4923, -5.530669 ] } },
{ "type": "Feature", "properties": { "tipo": "PORTO", "nome": "Palmeirândia  (Coroatá)", "categoria": "IP4", "uf": "MA" }, "geometry": { "type": "Point", "coordinates": [ -45.117784, -2.72672 ] } },
{ "type": "Feature", "properties": { "tipo": "PORTO", "nome": "Palmeirândia (São José dos Leite)", "categoria": "IP4", "uf": "MA" }, "geometry": { "type": "Point", "coordinates": [ -45.056928, -2.582104 ] } },
{ "type": "Feature", "properties": { "tipo": "PORTO", "nome": "Palmeirândia (Sede)", "categoria": "IP4", "uf": "MA" }, "geometry": { "type": "Point", "coordinates": [ -45.094099, -2.65922 ] } },
{ "type": "Feature", "properties": { "tipo": "PORTO", "nome": "Penalva", "categoria": "IP4", "uf": "MA" }, "geometry": { "type": "Point", "coordinates": [ -45.175499, -3.298109 ] } },
{ "type": "Feature", "properties": { "tipo": "PORTO", "nome": "Pindaré-Mirim", "categoria": "Porto Público", "uf": "MA" }, "geometry": { "type": "Point", "coordinates": [ -45.341799, -3.604369 ] } },
{ "type": "Feature", "properties": { "tipo": "PORTO", "nome": "Pinheiro", "categoria": "IP4", "uf": "MA" }, "geometry": { "type": "Point", "coordinates": [ -45.070214, -2.514278 ] } },
{ "type": "Feature", "properties": { "tipo": "PORTO", "nome": "Porto Franco", "categoria": "Porto Público", "uf": "MA" }, "geometry": { "type": "Point", "coordinates": [ -47.408099, -6.336079 ] } },
{ "type": "Feature", "properties": { "tipo": "PORTO", "nome": "Porto Rico do Maranhão", "categoria": "IP4", "uf": "MA" }, "geometry": { "type": "Point", "coordinates": [ -44.605262, -1.893043 ] } },
{ "type": "Feature", "properties": { "tipo": "PORTO", "nome": "Santa Inês", "categoria": "Porto Público", "uf": "MA" }, "geometry": { "type": "Point", "coordinates": [ -45.374641, -3.640897 ] } },
{ "type": "Feature", "properties": { "tipo": "PORTO", "nome": "São Bento", "categoria": "Porto Público", "uf": "MA" }, "geometry": { "type": "Point", "coordinates": [ -44.821199, -2.6947 ] } },
{ "type": "Feature", "properties": { "tipo": "PORTO", "nome": "Turiaçu", "categoria": "IP4", "uf": "MA" }, "geometry": { "type": "Point", "coordinates": [ -45.369199, -1.672069 ] } },
{ "type": "Feature", "properties": { "tipo": "PORTO", "nome": "Tutóia", "categoria": "IP4", "uf": "MA" }, "geometry": { "type": "Point", "coordinates": [ -42.2734, -2.76478 ] } },
{ "type": "Feature", "properties": { "tipo": "PORTO", "nome": "Camocim", "categoria": "Porto Público", "uf": "CE" }, "geometry": { "type": "Point", "coordinates": [ -40.841, -2.902 ] } },
{ "type": "Feature", "properties": { "tipo": "PORTO", "nome": "Macau", "categoria": "Porto Público", "uf": "RN" }, "geometry": { "type": "Point", "coordinates": [ -36.6653, -5.104739 ] } },
{ "type": "Feature", "properties": { "tipo": "PORTO", "nome": "Campos", "categoria": "Porto Público", "uf": "RJ" }, "geometry": { "type": "Point", "coordinates": [ -41.3085, -21.7496 ] } },
{ "type": "Feature", "properties": { "tipo": "PORTO", "nome": "Regência", "categoria": "Porto Público", "uf": "ES" }, "geometry": { "type": "Point", "coordinates": [ -39.826599, -19.6475 ] } },
{ "type": "Feature", "properties": { "tipo": "PORTO", "nome": "Vítoria - Águas Profundas", "categoria": "Porto Público", "uf": "ES" }, "geometry": { "type": "Point", "coordinates": [ -40.236276, -20.276641 ] } },
{ "type": "Feature", "properties": { "tipo": "PORTO", "nome": "Arambaré", "categoria": "Porto Público", "uf": "RS" }, "geometry": { "type": "Point", "coordinates": [ -51.497999, -30.914999 ] } },
{ "type": "Feature", "properties": { "tipo": "PORTO", "nome": "Barra do Ribeiro", "categoria": "Porto Público", "uf": "RS" }, "geometry": { "type": "Point", "coordinates": [ -51.301, -30.291 ] } },
{ "type": "Feature", "properties": { "tipo": "PORTO", "nome": "Cachoeira do Sul", "categoria": "Porto Organizado", "uf": "RS" }, "geometry": { "type": "Point", "coordinates": [ -52.878999, -30.0518 ] } },
{ "type": "Feature", "properties": { "tipo": "PORTO", "nome": "Charqueadas", "categoria": "Porto Público", "uf": "RS" }, "geometry": { "type": "Point", "coordinates": [ -51.598141, -29.94723 ] } },
{ "type": "Feature", "properties": { "tipo": "PORTO", "nome": "Jaguarão", "categoria": "Porto Público", "uf": "RS" }, "geometry": { "type": "Point", "coordinates": [ -53.375503, -32.569088 ] } },
{ "type": "Feature", "properties": { "tipo": "PORTO", "nome": "Mariante", "categoria": "Porto Público", "uf": "RS" }, "geometry": { "type": "Point", "coordinates": [ -51.753554, -29.903461 ] } },
{ "type": "Feature", "properties": { "tipo": "PORTO", "nome": "Rio Pardo", "categoria": "Porto Público", "uf": "RS" }, "geometry": { "type": "Point", "coordinates": [ -52.376199, -29.995499 ] } },
{ "type": "Feature", "properties": { "tipo": "PORTO", "nome": "Santa Vitória do Palmar", "categoria": "Porto Público", "uf": "RS" }, "geometry": { "type": "Point", "coordinates": [ -53.4333, -33.4986 ] } },
{ "type": "Feature", "properties": { "tipo": "PORTO", "nome": "Santana da Boa Vista", "categoria": "Porto Público", "uf": "RS" }, "geometry": { "type": "Point", "coordinates": [ -53.047914, -30.972908 ] } },
{ "type": "Feature", "properties": { "tipo": "PORTO", "nome": "São Jerônimo", "categoria": "Porto Público", "uf": "RS" }, "geometry": { "type": "Point", "coordinates": [ -51.7254, -29.954399 ] } },
{ "type": "Feature", "properties": { "tipo": "PORTO", "nome": "São José do Norte", "categoria": "IP4", "uf": "RS" }, "geometry": { "type": "Point", "coordinates": [ -52.041857, -32.014292 ] } },
{ "type": "Feature", "properties": { "tipo": "PORTO", "nome": "São Lourenço do Sul", "categoria": "Porto Público", "uf": "RS" }, "geometry": { "type": "Point", "coordinates": [ -51.975013, -31.369546 ] } },
{ "type": "Feature", "properties": { "tipo": "PORTO", "nome": "Tapes", "categoria": "Porto Público", "uf": "RS" }, "geometry": { "type": "Point", "coordinates": [ -51.396, -30.672999 ] } },
{ "type": "Feature", "properties": { "tipo": "PORTO", "nome": "Tavares", "categoria": "Porto Público", "uf": "RS" }, "geometry": { "type": "Point", "coordinates": [ -51.150529, -31.223206 ] } },
{ "type": "Feature", "properties": { "tipo": "PORTO", "nome": "Mostardas", "categoria": "Porto Público", "uf": "RS" }, "geometry": { "type": "Point", "coordinates": [ -51.117117, -31.101628 ] } },
{ "type": "Feature", "properties": { "tipo": "PORTO", "nome": "Fernando de Noronha", "categoria": "Porto Público", "uf": "PE" }, "geometry": { "type": "Point", "coordinates": [ -32.411, -3.839999 ] } },
{ "type": "Feature", "properties": { "tipo": "PORTO", "nome": "Barão de Melgaço", "categoria": "Porto Público", "uf": "MT" }, "geometry": { "type": "Point", "coordinates": [ -55.9717, -16.289296 ] } },
{ "type": "Feature", "properties": { "tipo": "PORTO", "nome": "Cáceres", "categoria": "Porto Público", "uf": "MT" }, "geometry": { "type": "Point", "coordinates": [ -57.698, -16.0728 ] } },
{ "type": "Feature", "properties": { "tipo": "PORTO", "nome": "Corumbá", "categoria": "Porto Público", "uf": "MS" }, "geometry": { "type": "Point", "coordinates": [ -57.6548, -18.997699 ] } },
{ "type": "Feature", "properties": { "tipo": "PORTO", "nome": "Cuiabá", "categoria": "Porto Público", "uf": "MT" }, "geometry": { "type": "Point", "coordinates": [ -56.1364, -15.612899 ] } },
{ "type": "Feature", "properties": { "tipo": "PORTO", "nome": "Destacamento Ingazeira", "categoria": "Porto Público", "uf": "MS" }, "geometry": { "type": "Point", "coordinates": [ -57.836892, -22.118967 ] } },
{ "type": "Feature", "properties": { "tipo": "PORTO", "nome": "Ladário", "categoria": "Porto Público", "uf": "MS" }, "geometry": { "type": "Point", "coordinates": [ -57.599152, -19.001245 ] } },
{ "type": "Feature", "properties": { "tipo": "PORTO", "nome": "Manga", "categoria": "Porto Público", "uf": "MS" }, "geometry": { "type": "Point", "coordinates": [ -57.235599, -19.259 ] } },
{ "type": "Feature", "properties": { "tipo": "PORTO", "nome": "Porto Cercado", "categoria": "Porto Público", "uf": "MT" }, "geometry": { "type": "Point", "coordinates": [ -56.368888, -16.491209 ] } },
{ "type": "Feature", "properties": { "tipo": "PORTO", "nome": "Porto Esperança", "categoria": "Porto Público", "uf": "MS" }, "geometry": { "type": "Point", "coordinates": [ -57.671313, -19.000682 ] } },
{ "type": "Feature", "properties": { "tipo": "PORTO", "nome": "Porto Murtinho", "categoria": "Porto Público", "uf": "MS" }, "geometry": { "type": "Point", "coordinates": [ -57.891666, -21.698611 ] } },
{ "type": "Feature", "properties": { "tipo": "PORTO", "nome": "Rondonópolis", "categoria": "Porto Público", "uf": "MT" }, "geometry": { "type": "Point", "coordinates": [ -54.969805, -16.469609 ] } },
{ "type": "Feature", "properties": { "tipo": "PORTO", "nome": "Santo Antônio das Lendas", "categoria": "Porto Público", "uf": "MT" }, "geometry": { "type": "Point", "coordinates": [ -57.692767, -16.067881 ] } },
{ "type": "Feature", "properties": { "tipo": "PORTO", "nome": "Santo Antônio de Leverger", "categoria": "Porto Público", "uf": "MT" }, "geometry": { "type": "Point", "coordinates": [ -56.076534, -15.869678 ] } },
{ "type": "Feature", "properties": { "tipo": "PORTO", "nome": "Vila Bela da Santíssima Trindade", "categoria": "Porto Público", "uf": "MT" }, "geometry": { "type": "Point", "coordinates": [ -59.953403, -15.008019 ] } },
{ "type": "Feature", "properties": { "tipo": "PORTO", "nome": "Água Vermelha", "categoria": "Porto Público", "uf": "MG" }, "geometry": { "type": "Point", "coordinates": [ -50.345465, -19.857365 ] } },
{ "type": "Feature", "properties": { "tipo": "PORTO", "nome": "Anhembi", "categoria": "Porto Público", "uf": "SP" }, "geometry": { "type": "Point", "coordinates": [ -48.130336, -22.771834 ] } },
{ "type": "Feature", "properties": { "tipo": "PORTO", "nome": "Araçatuba", "categoria": "Porto Público", "uf": "SP" }, "geometry": { "type": "Point", "coordinates": [ -50.489094, -21.042991 ] } },
{ "type": "Feature", "properties": { "tipo": "PORTO", "nome": "Artemis", "categoria": "Porto Público", "uf": "SP" }, "geometry": { "type": "Point", "coordinates": [ -47.65368, -22.719334 ] } },
{ "type": "Feature", "properties": { "tipo": "PORTO", "nome": "Chaveslândia (Sta.Vitória)", "categoria": "Porto Público", "uf": "MG" }, "geometry": { "type": "Point", "coordinates": [ -50.49817, -19.042709 ] } },
{ "type": "Feature", "properties": { "tipo": "PORTO", "nome": "Corumbatai", "categoria": "Porto Público", "uf": "SP" }, "geometry": { "type": "Point", "coordinates": [ -47.676742, -22.688863 ] } },
{ "type": "Feature", "properties": { "tipo": "PORTO", "nome": "Guaíra", "categoria": "Porto Público", "uf": "PR" }, "geometry": { "type": "Point", "coordinates": [ -54.2421, -24.070599 ] } },
{ "type": "Feature", "properties": { "tipo": "PORTO", "nome": "Luís Correia", "categoria": "Porto Público", "uf": "PI" }, "geometry": { "type": "Point", "coordinates": [ -41.663699, -2.877749 ] } },
{ "type": "Feature", "properties": { "tipo": "PORTO", "nome": "Destacamento Foz do APA", "categoria": "Porto Público", "uf": "MS" }, "geometry": { "type": "Point", "coordinates": [ -57.892288, -22.121267 ] } },
{ "type": "Feature", "properties": { "tipo": "PORTO", "nome": "Guarujá", "categoria": "Porto Público", "uf": "SP" }, "geometry": { "type": "Point", "coordinates": [ -46.293799, -23.960899 ] } },
{ "type": "Feature", "properties": { "tipo": "PORTO", "nome": "Ilha Solteira", "categoria": "Porto Público", "uf": "SP" }, "geometry": { "type": "Point", "coordinates": [ -51.366868, -20.410646 ] } },
{ "type": "Feature", "properties": { "tipo": "PORTO", "nome": "Itumbiara", "categoria": "Porto Público", "uf": "GO" }, "geometry": { "type": "Point", "coordinates": [ -49.212299, -18.413599 ] } },
{ "type": "Feature", "properties": { "tipo": "PORTO", "nome": "Iturama", "categoria": "Porto Público", "uf": "MG" }, "geometry": { "type": "Point", "coordinates": [ -50.189169, -19.812902 ] } },
{ "type": "Feature", "properties": { "tipo": "PORTO", "nome": "Jaú", "categoria": "Porto Público", "uf": "SP" }, "geometry": { "type": "Point", "coordinates": [ -48.690106, -22.370877 ] } },
{ "type": "Feature", "properties": { "tipo": "PORTO", "nome": "Panorama", "categoria": "Porto Público", "uf": "SP" }, "geometry": { "type": "Point", "coordinates": [ -51.857562, -21.350829 ] } },
{ "type": "Feature", "properties": { "tipo": "PORTO", "nome": "Pederneiras", "categoria": "Porto Público", "uf": "SP" }, "geometry": { "type": "Point", "coordinates": [ -48.718589, -22.349734 ] } },
{ "type": "Feature", "properties": { "tipo": "PORTO", "nome": "Porto Barragem de Jupiá", "categoria": "Porto Público", "uf": "MS" }, "geometry": { "type": "Point", "coordinates": [ -51.637023, -20.78374 ] } },
{ "type": "Feature", "properties": { "tipo": "PORTO", "nome": "Porto Mendes", "categoria": "Porto Público", "uf": "PR" }, "geometry": { "type": "Point", "coordinates": [ -54.315699, -24.4918 ] } },
{ "type": "Feature", "properties": { "tipo": "PORTO", "nome": "Porto Rico", "categoria": "Porto Público", "uf": "PR" }, "geometry": { "type": "Point", "coordinates": [ -53.267, -22.771999 ] } },
{ "type": "Feature", "properties": { "tipo": "PORTO", "nome": "Presidente Epitácio", "categoria": "Porto Público", "uf": "SP" }, "geometry": { "type": "Point", "coordinates": [ -52.1011, -21.754899 ] } },
{ "type": "Feature", "properties": { "tipo": "PORTO", "nome": "Rosana", "categoria": "Porto Público", "uf": "SP" }, "geometry": { "type": "Point", "coordinates": [ -53.02555, -22.595624 ] } },
{ "type": "Feature", "properties": { "tipo": "PORTO", "nome": "Rubinéia", "categoria": "Porto Público", "uf": "SP" }, "geometry": { "type": "Point", "coordinates": [ -51.019999, -20.175492 ] } },
{ "type": "Feature", "properties": { "tipo": "PORTO", "nome": "São Simão", "categoria": "Porto Público", "uf": "GO" }, "geometry": { "type": "Point", "coordinates": [ -50.517, -19.064299 ] } },
{ "type": "Feature", "properties": { "tipo": "PORTO", "nome": "Alto Parnaíba", "categoria": "Porto Público", "uf": "MA" }, "geometry": { "type": "Point", "coordinates": [ -45.9269, -9.11386 ] } },
{ "type": "Feature", "properties": { "tipo": "PORTO", "nome": "Amarante", "categoria": "Porto Público", "uf": "PI" }, "geometry": { "type": "Point", "coordinates": [ -42.854999, -6.240999 ] } },
{ "type": "Feature", "properties": { "tipo": "PORTO", "nome": "Araioses (Barreiras)", "categoria": "IP4", "uf": "MA" }, "geometry": { "type": "Point", "coordinates": [ -41.908599, -2.878049 ] } },
{ "type": "Feature", "properties": { "tipo": "PORTO", "nome": "Araioses (Carnaubeiras)", "categoria": "IP4", "uf": "MA" }, "geometry": { "type": "Point", "coordinates": [ -41.960587, -2.831523 ] } },
{ "type": "Feature", "properties": { "tipo": "PORTO", "nome": "Balsas", "categoria": "Porto Público", "uf": "MA" }, "geometry": { "type": "Point", "coordinates": [ -46.036, -7.533 ] } },
{ "type": "Feature", "properties": { "tipo": "PORTO", "nome": "Floriano", "categoria": "Porto Público", "uf": "PI" }, "geometry": { "type": "Point", "coordinates": [ -43.022799, -6.76327 ] } },
{ "type": "Feature", "properties": { "tipo": "PORTO", "nome": "Longá", "categoria": "Porto Público", "uf": "PI" }, "geometry": { "type": "Point", "coordinates": [ -43.061873, -5.977203 ] } },
{ "type": "Feature", "properties": { "tipo": "PORTO", "nome": "Miguel Alves", "categoria": "Porto Público", "uf": "PI" }, "geometry": { "type": "Point", "coordinates": [ -42.893307, -4.15977 ] } },
{ "type": "Feature", "properties": { "tipo": "PORTO", "nome": "Parnaíba", "categoria": "Porto Público", "uf": "PI" }, "geometry": { "type": "Point", "coordinates": [ -41.7959, -2.943299 ] } },
{ "type": "Feature", "properties": { "tipo": "PORTO", "nome": "Santa Filomena", "categoria": "Porto Público", "uf": "MA" }, "geometry": { "type": "Point", "coordinates": [ -45.9247, -9.114069 ] } },
{ "type": "Feature", "properties": { "tipo": "PORTO", "nome": "Teresina", "categoria": "Porto Público", "uf": "PI" }, "geometry": { "type": "Point", "coordinates": [ -42.8352, -5.068558 ] } },
{ "type": "Feature", "properties": { "tipo": "PORTO", "nome": "Timon", "categoria": "Porto Público", "uf": "MA" }, "geometry": { "type": "Point", "coordinates": [ -42.822956, -5.094235 ] } },
{ "type": "Feature", "properties": { "tipo": "PORTO", "nome": "Uruçuí", "categoria": "Porto Público", "uf": "PI" }, "geometry": { "type": "Point", "coordinates": [ -44.556336, -7.227108 ] } },
{ "type": "Feature", "properties": { "tipo": "PORTO", "nome": "Barra", "categoria": "Porto Público", "uf": "BA" }, "geometry": { "type": "Point", "coordinates": [ -43.138196, -11.091291 ] } },
{ "type": "Feature", "properties": { "tipo": "PORTO", "nome": "Barreiras", "categoria": "Porto Público", "uf": "BA" }, "geometry": { "type": "Point", "coordinates": [ -44.997799, -12.1407 ] } },
{ "type": "Feature", "properties": { "tipo": "PORTO", "nome": "Bom Jesus da Lapa", "categoria": "Porto Público", "uf": "BA" }, "geometry": { "type": "Point", "coordinates": [ -43.423317, -13.251423 ] } },
{ "type": "Feature", "properties": { "tipo": "PORTO", "nome": "Brasilândia de Minas", "categoria": "Porto Público", "uf": "MG" }, "geometry": { "type": "Point", "coordinates": [ -46.014926, -17.030503 ] } },
{ "type": "Feature", "properties": { "tipo": "PORTO", "nome": "Carinhanha", "categoria": "Porto Público", "uf": "BA" }, "geometry": { "type": "Point", "coordinates": [ -43.765, -14.304999 ] } },
{ "type": "Feature", "properties": { "tipo": "PORTO", "nome": "Cotegipe", "categoria": "Porto Público", "uf": "BA" }, "geometry": { "type": "Point", "coordinates": [ -44.3365, -11.811899 ] } },
{ "type": "Feature", "properties": { "tipo": "PORTO", "nome": "Formosa do Rio Preto", "categoria": "Porto Público", "uf": "BA" }, "geometry": { "type": "Point", "coordinates": [ -45.1912, -11.049799 ] } },
{ "type": "Feature", "properties": { "tipo": "PORTO", "nome": "Ibotirama", "categoria": "Porto Público", "uf": "BA" }, "geometry": { "type": "Point", "coordinates": [ -43.221933, -12.186441 ] } },
{ "type": "Feature", "properties": { "tipo": "PORTO", "nome": "Iguatama", "categoria": "Porto Público", "uf": "MG" }, "geometry": { "type": "Point", "coordinates": [ -45.715299, -20.1731 ] } },
{ "type": "Feature", "properties": { "tipo": "PORTO", "nome": "Itacarambi", "categoria": "Porto Público", "uf": "MG" }, "geometry": { "type": "Point", "coordinates": [ -44.091999, -15.102 ] } },
{ "type": "Feature", "properties": { "tipo": "PORTO", "nome": "Januária", "categoria": "Porto Público", "uf": "MG" }, "geometry": { "type": "Point", "coordinates": [ -44.354578, -15.489368 ] } },
{ "type": "Feature", "properties": { "tipo": "PORTO", "nome": "Juazeiro", "categoria": "Porto Público", "uf": "BA" }, "geometry": { "type": "Point", "coordinates": [ -40.5095, -9.409509 ] } },
{ "type": "Feature", "properties": { "tipo": "PORTO", "nome": "Penedo", "categoria": "Porto Público", "uf": "AL" }, "geometry": { "type": "Point", "coordinates": [ -36.5861, -10.290699 ] } },
{ "type": "Feature", "properties": { "tipo": "PORTO", "nome": "Petrolina", "categoria": "Porto Público", "uf": "PE" }, "geometry": { "type": "Point", "coordinates": [ -40.5183, -9.4016 ] } },
{ "type": "Feature", "properties": { "tipo": "PORTO", "nome": "Pirapora", "categoria": "IP4", "uf": "MG" }, "geometry": { "type": "Point", "coordinates": [ -44.9553, -17.3423 ] } },
{ "type": "Feature", "properties": { "tipo": "PORTO", "nome": "Propriá", "categoria": "Porto Público", "uf": "SE" }, "geometry": { "type": "Point", "coordinates": [ -36.8322, -10.2101 ] } },
{ "type": "Feature", "properties": { "tipo": "PORTO", "nome": "Riachão das Neves", "categoria": "Porto Público", "uf": "BA" }, "geometry": { "type": "Point", "coordinates": [ -44.7274, -11.8275 ] } },
{ "type": "Feature", "properties": { "tipo": "PORTO", "nome": "Santa Maria da Vitória", "categoria": "Porto Público", "uf": "BA" }, "geometry": { "type": "Point", "coordinates": [ -44.198, -13.397999 ] } },
{ "type": "Feature", "properties": { "tipo": "PORTO", "nome": "Santa Rita de Cássia", "categoria": "Porto Público", "uf": "BA" }, "geometry": { "type": "Point", "coordinates": [ -44.512399, -11.0188 ] } },
{ "type": "Feature", "properties": { "tipo": "PORTO", "nome": "Xique-xique", "categoria": "Porto Público", "uf": "BA" }, "geometry": { "type": "Point", "coordinates": [ -42.731387, -10.826639 ] } },
{ "type": "Feature", "properties": { "tipo": "PORTO", "nome": "Água Boa", "categoria": "Porto Público", "uf": "MT" }, "geometry": { "type": "Point", "coordinates": [ -51.698045, -14.088334 ] } },
{ "type": "Feature", "properties": { "tipo": "PORTO", "nome": "Aguiarnópolis", "categoria": "Porto Público", "uf": "TO" }, "geometry": { "type": "Point", "coordinates": [ -47.466, -6.562998 ] } },
{ "type": "Feature", "properties": { "tipo": "PORTO", "nome": "Aragarças", "categoria": "Porto Público", "uf": "MT" }, "geometry": { "type": "Point", "coordinates": [ -52.2533, -15.897299 ] } },
{ "type": "Feature", "properties": { "tipo": "PORTO", "nome": "Araguacema", "categoria": "Porto Público", "uf": "TO" }, "geometry": { "type": "Point", "coordinates": [ -49.555999, -8.804 ] } },
{ "type": "Feature", "properties": { "tipo": "PORTO", "nome": "Araguaiana", "categoria": "Porto Público", "uf": "MT" }, "geometry": { "type": "Point", "coordinates": [ -51.831, -15.733999 ] } },
{ "type": "Feature", "properties": { "tipo": "PORTO", "nome": "Araguatins", "categoria": "Porto Público", "uf": "TO" }, "geometry": { "type": "Point", "coordinates": [ -48.124, -5.650999 ] } },
{ "type": "Feature", "properties": { "tipo": "PORTO", "nome": "Aruanã", "categoria": "Porto Público", "uf": "GO" }, "geometry": { "type": "Point", "coordinates": [ -51.081, -14.9085 ] } },
{ "type": "Feature", "properties": { "tipo": "PORTO", "nome": "Barra do Garças", "categoria": "Porto Público", "uf": "MT" }, "geometry": { "type": "Point", "coordinates": [ -52.254368, -15.891683 ] } },
{ "type": "Feature", "properties": { "tipo": "PORTO", "nome": "Bom Jesus do Tocantins", "categoria": "Porto Público", "uf": "TO" }, "geometry": { "type": "Point", "coordinates": [ -48.167621, -8.930328 ] } },
{ "type": "Feature", "properties": { "tipo": "PORTO", "nome": "Bragança", "categoria": "Porto Público", "uf": "PA" }, "geometry": { "type": "Point", "coordinates": [ -46.756222, -1.06024 ] } },
{ "type": "Feature", "properties": { "tipo": "PORTO", "nome": "Cachoeira Dourada", "categoria": "Porto Público", "uf": "MG" }, "geometry": { "type": "Point", "coordinates": [ -49.500999, -18.515 ] } },
{ "type": "Feature", "properties": { "tipo": "PORTO", "nome": "Caseara", "categoria": "Porto Público", "uf": "TO" }, "geometry": { "type": "Point", "coordinates": [ -49.96504, -9.235676 ] } },
{ "type": "Feature", "properties": { "tipo": "PORTO", "nome": "Cocalinho", "categoria": "Porto Público", "uf": "MT" }, "geometry": { "type": "Point", "coordinates": [ -50.996, -14.397 ] } },
{ "type": "Feature", "properties": { "tipo": "PORTO", "nome": "Conceição do Araguaia", "categoria": "IP4", "uf": "PA" }, "geometry": { "type": "Point", "coordinates": [ -49.260699, -8.27284 ] } },
{ "type": "Feature", "properties": { "tipo": "PORTO", "nome": "Couto Magalhães", "categoria": "Porto Público", "uf": "TO" }, "geometry": { "type": "Point", "coordinates": [ -49.2533, -8.27326 ] } },
{ "type": "Feature", "properties": { "tipo": "PORTO", "nome": "Luciára", "categoria": "Porto Público", "uf": "MT" }, "geometry": { "type": "Point", "coordinates": [ -50.668999, -11.221999 ] } },
{ "type": "Feature", "properties": { "tipo": "PORTO", "nome": "Marabá", "categoria": "Porto Público", "uf": "PA" }, "geometry": { "type": "Point", "coordinates": [ -49.135899, -5.34731 ] } },
{ "type": "Feature", "properties": { "tipo": "PORTO", "nome": "Marabá (multimodal)", "categoria": "Porto Público", "uf": "PA" }, "geometry": { "type": "Point", "coordinates": [ -49.080146, -5.324662 ] } },
{ "type": "Feature", "properties": { "tipo": "PORTO", "nome": "Marabá (orla)", "categoria": "IP4", "uf": "PA" }, "geometry": { "type": "Point", "coordinates": [ -49.114505, -5.331385 ] } },
{ "type": "Feature", "properties": { "tipo": "PORTO", "nome": "Miracema do Tocantins", "categoria": "Porto Público", "uf": "TO" }, "geometry": { "type": "Point", "coordinates": [ -48.3883, -9.5677 ] } },
{ "type": "Feature", "properties": { "tipo": "PORTO", "nome": "Nova Xavantina", "categoria": "Porto Público", "uf": "MT" }, "geometry": { "type": "Point", "coordinates": [ -52.354202, -14.669237 ] } },
{ "type": "Feature", "properties": { "tipo": "PORTO", "nome": "Palmas", "categoria": "Porto Público", "uf": "TO" }, "geometry": { "type": "Point", "coordinates": [ -48.364081, -10.087077 ] } },
{ "type": "Feature", "properties": { "tipo": "PORTO", "nome": "Pau d’Arco", "categoria": "Porto Público", "uf": "TO" }, "geometry": { "type": "Point", "coordinates": [ -49.370016, -7.543747 ] } },
{ "type": "Feature", "properties": { "tipo": "PORTO", "nome": "Porto Nacional", "categoria": "Porto Público", "uf": "TO" }, "geometry": { "type": "Point", "coordinates": [ -48.4183, -10.708899 ] } },
{ "type": "Feature", "properties": { "tipo": "PORTO", "nome": "Santa Terezinha", "categoria": "Porto Público", "uf": "MT" }, "geometry": { "type": "Point", "coordinates": [ -50.503, -10.47 ] } },
{ "type": "Feature", "properties": { "tipo": "PORTO", "nome": "São Domingos do Capim", "categoria": "Porto Público", "uf": "PA" }, "geometry": { "type": "Point", "coordinates": [ -47.759397, -1.820738 ] } },
{ "type": "Feature", "properties": { "tipo": "PORTO", "nome": "São Félix do Araguaia", "categoria": "Porto Público", "uf": "MT" }, "geometry": { "type": "Point", "coordinates": [ -50.660832, -11.615 ] } },
{ "type": "Feature", "properties": { "tipo": "PORTO", "nome": "Tucuruí", "categoria": "IP4", "uf": "PA" }, "geometry": { "type": "Point", "coordinates": [ -49.657499, -3.789109 ] } },
{ "type": "Feature", "properties": { "tipo": "PORTO", "nome": "Xambioá", "categoria": "Porto Público", "uf": "TO" }, "geometry": { "type": "Point", "coordinates": [ -48.537602, -6.408197 ] } },
{ "type": "Feature", "properties": { "tipo": "PORTO", "nome": "Barra do Quaraí", "categoria": "Porto Público", "uf": "RS" }, "geometry": { "type": "Point", "coordinates": [ -57.555561, -30.20846 ] } },
{ "type": "Feature", "properties": { "tipo": "PORTO", "nome": "Porto Mauá", "categoria": "Porto Público", "uf": "RS" }, "geometry": { "type": "Point", "coordinates": [ -54.667999, -27.574999 ] } },
{ "type": "Feature", "properties": { "tipo": "PORTO", "nome": "São Borja", "categoria": "Porto Público", "uf": "RS" }, "geometry": { "type": "Point", "coordinates": [ -56.0309, -28.6233 ] } },
{ "type": "Feature", "properties": { "tipo": "PORTO", "nome": "Uruguaiana", "categoria": "Porto Público", "uf": "RS" }, "geometry": { "type": "Point", "coordinates": [ -57.095582, -29.746276 ] } },
{ "type": "Feature", "properties": { "tipo": "PORTO", "nome": "Alenquer", "categoria": "Porto Público", "uf": "PA" }, "geometry": { "type": "Point", "coordinates": [ -54.726732, -1.952758 ] } },
{ "type": "Feature", "properties": { "tipo": "PORTO", "nome": "Afuá", "categoria": "Porto Público", "uf": "PA" }, "geometry": { "type": "Point", "coordinates": [ -50.389441, -0.157852 ] } },
{ "type": "Feature", "properties": { "tipo": "PORTO", "nome": "Chaves", "categoria": "Porto Público", "uf": "PA" }, "geometry": { "type": "Point", "coordinates": [ -49.981638, -0.166562 ] } },
{ "type": "Feature", "properties": { "tipo": "PORTO", "nome": "Salvaterra", "categoria": "Porto Público", "uf": "PA" }, "geometry": { "type": "Point", "coordinates": [ -48.512596, -0.754565 ] } },
{ "type": "Feature", "properties": { "tipo": "PORTO", "nome": "Soure", "categoria": "Porto Público", "uf": "PA" }, "geometry": { "type": "Point", "coordinates": [ -48.516221, -0.725616 ] } },
{ "type": "Feature", "properties": { "tipo": "PORTO", "nome": "Curralinho", "categoria": "Porto Público", "uf": "PA" }, "geometry": { "type": "Point", "coordinates": [ -49.799894, -1.810287 ] } },
{ "type": "Feature", "properties": { "tipo": "PORTO", "nome": "Terminal Floresta", "categoria": "Porto Público", "uf": "SP" }, "geometry": { "type": "Point", "coordinates": [ -48.968333, -21.854722 ] } },
{ "type": "Feature", "properties": { "tipo": "PORTO", "nome": "Terminal São Miguel", "categoria": "Porto Público", "uf": "SP" }, "geometry": { "type": "Point", "coordinates": [ -48.743611, -22.217777 ] } },
{ "type": "Feature", "properties": { "tipo": "PORTO", "nome": "Terminal Fazenda São Joaquim", "categoria": "Porto Público", "uf": "SP" }, "geometry": { "type": "Point", "coordinates": [ -48.660555, -22.429999 ] } },
{ "type": "Feature", "properties": { "tipo": "PORTO", "nome": "Eclusa Tietê Montante", "categoria": "Porto Público", "uf": "SP" }, "geometry": { "type": "Point", "coordinates": [ -48.535277, -22.522222 ] } },
{ "type": "Feature", "properties": { "tipo": "PORTO", "nome": "Usina Diamante", "categoria": "Porto Público", "uf": "SP" }, "geometry": { "type": "Point", "coordinates": [ -48.691034, -22.372084 ] } },
{ "type": "Feature", "properties": { "tipo": "PORTO", "nome": "Usina Pioneiros", "categoria": "Porto Público", "uf": "SP" },